id,name,lat,lon,tipo
18848,Clínicas,-23.554022,-46.671108,onibus
18849,Vila Madalena,-23.546498,-46.691141,onibus
18850,Consolação,-23.558094,-46.660205,onibus
18851,Conceição,-23.635039,-46.641239,onibus
18852,Jabaquara,-23.646033,-46.641028,onibus
18853,São Judas,-23.625882,-46.640936,onibus
18854,Saúde,-23.618245,-46.639139,onibus
18855,Praça Da Árvore,-23.610583,-46.637918,onibus
18856,Santa Cruz,-23.598541,-46.636638,onibus
18857,Vila Mariana,-23.589359,-46.634677,onibus
18858,Brigadeiro,-23.567615,-46.649027,onibus
18859,Trianon-masp,-23.56357,-46.653893,onibus
18860,Ana Rosa,-23.581203,-46.638489,onibus
18861,Paraíso,-23.5754,-46.6407,onibus
18862,Vergueiro,-23.568521,-46.639904,onibus
18863,São Joaquim,-23.561435,-46.638534,onibus
18864,Marechal Deodoro,-23.533163,-46.657264,onibus
18865,Santa Cecília,-23.538095,-46.649009,onibus
18866,República,-23.544215,-46.642461,onibus
18867,Anhangabaú,-23.5478,-46.6392,onibus
18868,Liberdade,-23.555211,-46.635581,onibus
18869,Sé,-23.5505,-46.633305,onibus
18870,São Bento,-23.5441,-46.6342,onibus
18871,Pedro II,-23.549742,-46.626281,onibus
18872,Luz,-23.5366,-46.6343,onibus
18873,Tiradentes,-23.531324,-46.632672,onibus
18874,Armênia,-23.5254,-46.6292,onibus
18875,Bresser-mooca,-23.546398,-46.607246,onibus
18876,Belém,-23.542922,-46.589676,onibus
18877,Portuguesa-tietê,-23.51624,-46.625149,onibus
18878,Carandiru,-23.508727,-46.624897,onibus
18879,Santana,-23.502716,-46.624716,onibus
18880,Jardim São Paulo-ayrton Senna,-23.492734,-46.617354,onibus
18881,Parada Inglesa,-23.487111,-46.608877,onibus
18882,Tucuruvi,-23.480049,-46.603209,onibus
18883,Carrão,-23.53784,-46.564393,onibus
18884,Penha,-23.533594,-46.542944,onibus
18885,Vila Matilde,-23.531901,-46.530904,onibus
18886,Guilhermina Esperança,-23.529319,-46.516673,onibus
18887,Patriarca,-23.531079,-46.501715,onibus
18888,Artur Alvim,-23.540068,-46.484833,onibus
18889,Eng. Goulart,-23.498281,-46.520092,onibus
18890,Corinthians-itaquera,-23.542411,-46.471964,onibus
18891,Comendador Ermelino,-23.485166,-46.482828,onibus
18892,Dom Bosco,-23.541714,-46.447993,onibus
18893,José Bonifácio,-23.53912,-46.431683,onibus
18894,Antônio Gianetti Neto,-23.554322,-46.383668,onibus
18895,Guaianases,-23.542298,-46.415633,onibus
18897,Itaim Paulista,-23.493989,-46.402304,onibus
18898,Ferraz De Vasconcelos,-23.540688,-46.368207,onibus
18899,Poá,-23.525211,-46.34325,onibus
18900,Eng Manoel Feio,-23.478636,-46.364469,onibus
18901,Calmon Viana,-23.525497,-46.332803,onibus
18902,Suzano,-23.533521,-46.309229,onibus
18906,Santo Amaro,-23.655909,-46.719702,onibus
18907,Jurubatuba,-23.677465,-46.702213,onibus
18908,Socorro,-23.66343,-46.71097,onibus
18909,Granja Julieta,-23.627599,-46.712111,onibus
18910,Morumbi,-23.621519,-46.701657,onibus
18911,Berrini,-23.604669,-46.696825,onibus
18912,Vila Olímpia,-23.593185,-46.692871,onibus
18913,Cidade Jardim,-23.585337,-46.691293,onibus
18914,Amador Bueno,-23.5307,-46.983928,onibus
18916,Piqueri,-23.504206,-46.714999,onibus
18917,Lapa (linha 7),-23.517538,-46.703952,onibus
18918,Lapa (linha 8),-23.519585,-46.700124,onibus
18919,Água Branca,-23.521231,-46.689237,onibus
18920,Palmeiras - Barra Funda,-23.525317,-46.666547,onibus
18921,Perus,-23.404054,-46.754465,onibus
18922,Jaraguá,-23.455502,-46.738483,onibus
18923,Vila Clarice,-23.470038,-46.744207,onibus
18924,Caieiras,-23.367176,-46.752822,onibus
18925,Franco Da Rocha,-23.332181,-46.727614,onibus
18926,Baltazar Fidélis,-23.310582,-46.722853,onibus
18927,Tamanduateí,-23.592982,-46.589343,onibus
18928,São Caetano,-23.610281,-46.57033,onibus
18929,Utinga,-23.626196,-46.543623,onibus
18930,Prefeito Saladino,-23.638762,-46.53686,onibus
18931,Ribeirão Pires,-23.713586,-46.414805,onibus
18932,Rio Grande Da Serra,-23.742981,-46.392026,onibus
18934,Capuava,-23.65851,-46.490542,onibus
18935,Mauá,-23.668016,-46.461769,onibus
18936,Prefeito Celso Daniel - Santo André,-23.652472,-46.528568,onibus
18937,Guapituba,-23.691321,-46.449263,onibus
18939,Júlio Prestes,-23.532964,-46.640763,onibus
18940,Luz,-23.535103,-46.635436,onibus
18941,Moóca,-23.557799,-46.608419,onibus
18942,Ipiranga,-23.582356,-46.59666,onibus
18944,Tatuapé,-23.5403,-46.5767,onibus
18946,Santa Rita,-23.545115,-46.947651,onibus
18947,Itapevi,-23.545728,-46.935416,onibus
18948,Engenheiro Cardoso,-23.535245,-46.928291,onibus
18949,Sagrado Coração,-23.52908,-46.91728,onibus
18950,Jandira,-23.527721,-46.902507,onibus
18951,Jardim Silveira,-23.523568,-46.893491,onibus
18952,Jardim Belval,-23.514306,-46.88929,onibus
18953,Barueri,-23.512644,-46.875113,onibus
18954,Antônio João,-23.516859,-46.858801,onibus
18955,Santa Terezinha,-23.516347,-46.84807,onibus
18956,Carapicuíba,-23.518744,-46.835417,onibus
18957,General Miguel Costa,-23.523639,-46.815998,onibus
18958,Quitaúna,-23.522871,-46.807085,onibus
18959,Comandante Sampaio,-23.52599,-46.796059,onibus
18960,Osasco,-23.527834,-46.776007,onibus
18961,Presidente Altino,-23.530423,-46.760577,onibus
18962,Ceasa,-23.538372,-46.741543,onibus
18963,Villa Lobos- Jaguaré,-23.546718,-46.732079,onibus
18964,Imperatriz Leopoldina,-23.523749,-46.737662,onibus
18965,Pirituba,-23.488464,-46.726058,onibus
18966,Pinheiros,-23.566631,-46.703082,onibus
18967,Cidade Universitária,-23.55757,-46.712434,onibus
18968,Hebraica - Rebouças,-23.573822,-46.698634,onibus
18969,Domingos De Moraes,-23.518787,-46.721665,onibus
18971,Francisco Morato,-23.284893,-46.742046,onibus
18972,Botujuru,-23.23541,-46.767932,onibus
18973,Campo Limpo Paulista,-23.207264,-46.784873,onibus
18974,Várzea Paulista,-23.208824,-46.829012,onibus
18975,Jundiai,-23.195643,-46.8719,onibus
18976,Itaquaquecetuba,-23.48577,-46.348456,onibus
18978,Jundiapeba,-23.542687,-46.256308,onibus
18979,Brás Cubas,-23.536255,-46.225325,onibus
18980,Mogi Das Cruzes,-23.521185,-46.197135,onibus
18981,Estudantes,-23.515696,-46.18493,onibus
18984,Ana Rosa,-23.581388,-46.638455,onibus
18985,Palmeiras - Barra Funda,-23.525592,-46.666651,onibus
18986,Palmeiras - Barra Funda,-23.525703,-46.666803,onibus
18987,Brás,-23.545461,-46.616228,onibus
18989,Paraíso,-23.5753,-46.6408,onibus
19000,Sé,-23.550611,-46.633505,onibus
19040,Largo Treze,-23.654465,-46.710305,onibus
19041,Santo Amaro,-23.655575,-46.721095,onibus
19042,Giovanni Gronchi,-23.643975,-46.734112,onibus
19043,Vila Das Belezas,-23.640331,-46.745882,onibus
19044,Campo Limpo,-23.648987,-46.758878,onibus
19045,Capão Redondo,-23.659955,-46.768691,onibus
19070,Via Transversal Sul,-23.580717,-46.794016,onibus
19071,"Av. Dos Ourives, 780",-23.655442,-46.607946,onibus
19072,"Av. Dos Ourives, 780",-23.655265,-46.607882,onibus
19073,"Rod. Arão Sahm, 25020",-23.373502,-46.575335,onibus
19076,"Estr. Mombaça, 1",-23.734689,-46.796429,onibus
19077,"Av. Intercontinental, 625",-23.601516,-46.753583,onibus
104763,"Av. Luca, 455",-23.569481,-46.559044,onibus
105268,"R. Montezina, 226",-23.574844,-46.569858,onibus
105368,"R. Do Orfanato, 1795",-23.573757,-46.570172,onibus
105388,"Av. Sapopemba, 1985",-23.572199,-46.569076,onibus
105424,"R. Farol Paulistano, 86",-23.571971,-46.577453,onibus
105431,"R. Pirassununga, 815",-23.563638,-46.578721,onibus
105432,"R. Pirassununga, 1110",-23.566062,-46.580119,onibus
109574,"R. Fernando Falcão, 25",-23.554218,-46.583823,onibus
109576,"R. Tié, 84",-23.55691,-46.581024,onibus
109594,"R. Diogo Lopes, 67",-23.5621,-46.576811,onibus
109595,"R. Pirassununga, 826",-23.563852,-46.578953,onibus
109731,"Pça. Tristão Da Cunha, 86",-23.568991,-46.578059,onibus
109733,"Av. Salim Farah Maluf, 3200",-23.557134,-46.57783,onibus
109738,"R. Campo Largo, 475",-23.567385,-46.5811,onibus
109739,"R. Dr. José Higino, 78",-23.568491,-46.581779,onibus
109740,"R. Lituânia, 330",-23.563491,-46.588985,onibus
109741,"R. Lituânia, 613",-23.564467,-46.586589,onibus
109749,"R. Barretos, 581",-23.565979,-46.585566,onibus
109751,"R. Corumbaíba, 728",-23.571378,-46.576358,onibus
109754,"Av. Luca, 861",-23.569279,-46.557136,onibus
109759,"R. Pirassununga, 1313",-23.567859,-46.580223,onibus
109761,"R. Pirajá, 347",-23.562059,-46.575916,onibus
109762,"R. Corumbaíba, 238",-23.569985,-46.576826,onibus
109765,"Av. Salim Farah Maluf, 2100",-23.552232,-46.577653,onibus
109773,"R. Siqueira Bueno, 1916",-23.552927,-46.585032,onibus
109775,"R. Sebastião Barbosa, 37",-23.55287,-46.574698,onibus
109776,"Pça. Ituzaingo, 10",-23.55276,-46.572316,onibus
109777,"R. Pirassununga, 1071",-23.565928,-46.580013,onibus
109778,"Av. Salim Farah Maluf, 3117",-23.556718,-46.577175,onibus
109784,"R. Lituânia, 566",-23.564386,-46.587162,onibus
109785,"R. Guandu, 8",-23.556935,-46.569623,onibus
210999,"R. Livi, 473",-23.547121,-46.700656,onibus
211000,"R. Livi, 346",-23.545968,-46.700768,onibus
211121,"R. Pio Xi, 1480",-23.536022,-46.714262,onibus
211122,"R. S. Domingos Savio, 160",-23.536739,-46.713576,onibus
211147,"Av. Arruda Botelho, 255",-23.550196,-46.717396,onibus
211148,"Av. Arruda Botelho, 595",-23.552927,-46.71884,onibus
211157,"R. Da. Elisa Moraes Mendes, 1199",-23.551962,-46.707761,onibus
211191,"Av. S. Gualter, 1850",-23.551015,-46.709414,onibus
211193,"R. Da. Elisa Moraes Mendes, 1280",-23.552654,-46.708362,onibus
211227,"Av. Pe. Pereira De Andrade, 100",-23.538171,-46.719704,onibus
211241,"Av. Dra. Ruth Cardoso, 4797",-23.551839,-46.722569,onibus
211256,"R. Dr. Alberto Seabra, 402",-23.547587,-46.708644,onibus
211262,"R. Dr. Alberto Seabra, 1175",-23.541231,-46.705945,onibus
211269,"Av. Pedroso De Moraes, 2538",-23.555119,-46.705697,onibus
211270,"Av. Arruda Botelho, 262",-23.5503,-46.71789,onibus
211273,"R. Nazareth Paulista, 320",-23.545726,-46.69938,onibus
211274,"R. Nazareth Paulista, 223",-23.5456,-46.700349,onibus
211275,"Av. Prof. Fonseca Rodrigues, 689",-23.549045,-46.714419,onibus
211276,"R. Das Tabocas, 202",-23.550716,-46.697987,onibus
211278,"R. Pio Xi, 2038",-23.54038,-46.713928,onibus
211279,"R. Ibiraçu, 179",-23.542689,-46.700338,onibus
301075,"Estr. Cel. José Gladiador, 400",-23.442484,-46.796363,onibus
301087,"Av. Felippo Sturba, 685",-23.440339,-46.790203,onibus
301567,"R. Diego Velasquez, 194",-23.431892,-46.789126,onibus
301573,"R. Nestor Gomes, 105",-23.431512,-46.793126,onibus
301578,"R. Alberto Alvarez, 189",-23.430024,-46.794481,onibus
301646,"R. Itabira Do Mato, 53",-23.446529,-46.803318,onibus
301671,"Av. Da Solidariedade, 23",-23.43718,-46.805737,onibus
301672,"Av. Da Solidariedade, 111",-23.43923,-46.807039,onibus
301674,Estr. Cel. José Gladiador,-23.442419,-46.796187,onibus
301678,"Av. Felippo Sturba, 112",-23.43906,-46.789962,onibus
301679,"Av. Felippo Sturba, 390",-23.440333,-46.790333,onibus
301680,"Av. Felippo Sturba, 866",-23.443893,-46.791584,onibus
301681,"Av. Felippo Sturba, 790",-23.445365,-46.791993,onibus
301682,"Av. Felippo Sturba, 1000",-23.449411,-46.793787,onibus
301683,"Av. Felippo Sturba, 1317",-23.449543,-46.793771,onibus
301684,Av. Felippo Sturba,-23.447396,-46.792568,onibus
301686,"R. Francisco Bellazi, 289",-23.450869,-46.79071,onibus
301687,"R. Francisco Bellazi, 521",-23.452273,-46.792456,onibus
301691,"R. Mário Palmerio, 193",-23.438792,-46.791306,onibus
301692,"R. Tancredo Neves, 46",-23.437343,-46.80343,onibus
301693,"Estr. De Pirapora, 850",-23.43134,-46.800551,onibus
301697,"R. Dalva De Oliveira, 70",-23.438349,-46.802298,onibus
301698,"R. Preste, 12",-23.436158,-46.804023,onibus
301699,"R. Tancredo Neves, 46",-23.437337,-46.803267,onibus
301700,"R. Elis Regina, 170",-23.43763,-46.804526,onibus
301701,"R. Preste, 2",-23.436138,-46.804151,onibus
301702,"R. Recife, 51",-23.435635,-46.809855,onibus
301709,Rod. Anhanguera (pista Local),-23.442306,-46.786212,onibus
301711,R. Albert Jansen,-23.44573,-46.789183,onibus
301712,"R. Alexandre Caturla, 4",-23.443804,-46.786332,onibus
301713,"R. Alexandre Caturla, 161",-23.44395,-46.786456,onibus
301714,Estr. De Pirapora,-23.436426,-46.805789,onibus
301715,"Estr. De Pirapora, 93",-23.436525,-46.805893,onibus
301716,"Estr. De Pirapora, 241",-23.437681,-46.808417,onibus
301717,Estr. De Pirapora,-23.435614,-46.802456,onibus
301718,R. Recife,-23.436694,-46.810744,onibus
301720,Estr. De Pirapora,-23.43537,-46.802816,onibus
301721,"R. Osorio Alves De Castro, 17",-23.44877,-46.788268,onibus
301724,"R. Delsuc Alves De Magalhães, 538",-23.435469,-46.791522,onibus
301729,Terminal Jardim Britânia,-23.432142,-46.787093,onibus
301730,"Estr. Cel. José Gladiador, 262",-23.435386,-46.791885,onibus
301731,Rod. Anhanguera (pista Local),-23.442393,-46.786298,onibus
301732,"Estr. De Ligação, 2375",-23.438879,-46.765932,onibus
301733,"Estr. De Ligação, 2375",-23.438793,-46.765945,onibus
301735,"Av. Euclides Da Cunha, 54",-23.43261,-46.781497,onibus
301736,"R. Denis Brean (p. Morro Doce-anh), 252",-23.451236,-46.794341,onibus
301737,"R. Denis Brean (p. Morro Doce-anh), 252",-23.451222,-46.794275,onibus
301738,R. George Dantu,-23.413595,-46.808203,onibus
301739,R. George Dantu,-23.413548,-46.808068,onibus
301740,R. Enéas De Camargo,-23.415927,-46.807252,onibus
301741,R. Aloisio Magalhães,-23.416854,-46.809004,onibus
301743,"R. George Dantu, 250",-23.415388,-46.810043,onibus
301745,"R. Enéas De Camargo, 453",-23.418517,-46.805343,onibus
301746,Rod. Anhanguera,-23.414728,-46.805338,onibus
301747,Rod. Anhanguera,-23.410614,-46.818406,onibus
301749,Rod. Anhanguera,-23.422023,-46.792222,onibus
301751,"R. Leopoldo De Passos Lima, 182",-23.430417,-46.78897,onibus
301752,R. Dr. Nilo Cairo,-23.411971,-46.813997,onibus
301753,R. Dr. Nilo Cairo,-23.412931,-46.812515,onibus
301754,R. Dr. Nilo Cairo,-23.412863,-46.812419,onibus
301755,"R. Leonel Martiniano, 246",-23.414108,-46.811952,onibus
301756,"R. Leonel Martiniano, 250",-23.414004,-46.812114,onibus
301758,R. Albert Jansen,-23.448385,-46.789081,onibus
301759,R. Albert Jansen,-23.44842,-46.789309,onibus
301760,"R. Leopoldo De Passos Lima, 182",-23.430304,-46.788987,onibus
301761,"Estr. De Perus, 1100",-23.415978,-46.780547,onibus
301763,"R. Delsuc Alves De Magalhães, 265",-23.435689,-46.788772,onibus
301764,"R. Delsuc Alves De Magalhães, 194",-23.435427,-46.78846,onibus
301765,"R. Francisco Bellazi, 109",-23.449748,-46.789073,onibus
301766,"R. Francisco Bellazi, 92",-23.44955,-46.78884,onibus
301767,"R. Mário Palmerio, 186",-23.438799,-46.791078,onibus
301768,"Av. Da Solidariedade, 24",-23.437188,-46.805763,onibus
301771,R. Lagoa Do Morro,-23.444382,-46.799485,onibus
301772,"R. Recife, 73",-23.434516,-46.809742,onibus
301773,"R. Osorio Alves De Castro, 22",-23.449117,-46.788154,onibus
301774,"Estr. Cel. José Gladiador, 551",-23.437657,-46.793129,onibus
301775,"Estr. Cel. José Gladiador, 769",-23.438884,-46.794324,onibus
301776,"Estr. Cel. José Gladiador, 805",-23.43922,-46.794707,onibus
301777,Av. Tte. Marquês,-23.409145,-46.823674,onibus
301778,Av. Tte. Marquês,-23.408975,-46.82264,onibus
301779,"R. Recife, 28",-23.436418,-46.810531,onibus
301780,"R. Dalva De Oliveira, 75",-23.438467,-46.802185,onibus
301783,"R. Dos Vitoriosos, 1",-23.436355,-46.802648,onibus
301784,"R. Minas Gerais, 12",-23.436346,-46.802331,onibus
301785,Terminal Jardim Britânia,-23.431538,-46.787191,onibus
301788,Terminal Jardim Britânia,-23.431644,-46.787175,onibus
301789,Terminal Jardim Britânia,-23.431805,-46.787148,onibus
301790,Terminal Jardim Britânia,-23.431924,-46.787131,onibus
301791,"Estr. De Pirapora, 1000",-23.434096,-46.800786,onibus
301792,"Estr. De Pirapora, 1000",-23.434406,-46.801068,onibus
301793,"R. D. Agnelo Rossi, 90",-23.439232,-46.793185,onibus
301794,"R. Luiz Domingues De Castro, 61",-23.441499,-46.790599,onibus
301795,"R. Luiz Domingues De Castro, 49",-23.441588,-46.790548,onibus
301796,"R. Luiz Domingues De Castro, 396",-23.441371,-46.793708,onibus
301797,"R. Luiz Domingues De Castro, 419",-23.441277,-46.79356,onibus
301799,R. Alberto Callix,-23.441277,-46.794912,onibus
301800,"R. Alberto Callix, 76",-23.440975,-46.794961,onibus
301801,"R. Ubirajara Donizete De Andrade, 326",-23.440922,-46.792922,onibus
301802,"R. Júlio Vicente Ferreira, 1094",-23.440727,-46.793257,onibus
404584,"Av. Mons. Antônio De Castro, 676",-23.571981,-46.523664,onibus
404590,"Av. Cipriano Rodrigues, 27",-23.576219,-46.527823,onibus
404592,"Av. Cipriano Rodrigues, 908",-23.577026,-46.525923,onibus
404595,"Av. Cipriano Rodrigues, 1160",-23.576888,-46.5238,onibus
404596,"Av. Cipriano Rodrigues, 67",-23.576676,-46.521971,onibus
404597,"Av. Cipriano Rodrigues, 133",-23.576299,-46.521375,onibus
404598,"Av. Dos Nacionalistas, 347",-23.576619,-46.51706,onibus
404599,"Av. Dos Nacionalistas, 386",-23.576674,-46.516937,onibus
404602,"Av. Dos Nacionalistas, 459",-23.577057,-46.515625,onibus
404636,"Av. Rio Das Pedras, 2451",-23.574454,-46.504856,onibus
404643,"Av. Dos Nacionalistas, 640",-23.577613,-46.514679,onibus
404724,"Av. Pst. Cicero Canuto De Lima, 762",-23.580063,-46.504954,onibus
404729,"Av. Pst. Cicero Canuto De Lima, 249",-23.579897,-46.510115,onibus
404732,"Av. Pst. Cicero Canuto De Lima, 285",-23.580064,-46.509688,onibus
404733,"Av. Pst. Cicero Canuto De Lima, 10",-23.579372,-46.512368,onibus
404734,"Av. Dos Nacionalistas, 920",-23.579305,-46.512646,onibus
404735,"R. Dos Fonsecas, 171",-23.579529,-46.50797,onibus
408848,"Av. Aricanduva, 4630",-23.560734,-46.512483,onibus
408989,"Av. João XxIII, 1386",-23.569976,-46.528901,onibus
408991,"R. Tuma Maluly, 85",-23.585337,-46.510767,onibus
408997,"Av. Pst. Cicero Canuto De Lima, 489",-23.579998,-46.507414,onibus
409027,"R. Tuma Maluly, 87",-23.588897,-46.509992,onibus
409048,Parada 2,-23.565542,-46.507817,onibus
409050,"Av. Inconfidência Mineira, 1997",-23.570684,-46.509236,onibus
409051,"Av. Francisco José Rezende, 138",-23.567969,-46.507183,onibus
409052,"Av. Odilon Pires, 235",-23.565666,-46.509179,onibus
409054,"R. João Galli, 45",-23.58364,-46.525041,onibus
409058,"R. Nello Selmi Dei, 44",-23.580389,-46.509825,onibus
409059,"Av. Rio Das Pedras, 1458",-23.567647,-46.510366,onibus
409060,"R. Manuel Figueiredo, 36",-23.573403,-46.523575,onibus
409061,"Av. Mons. Antônio De Castro, 685",-23.571969,-46.523548,onibus
409063,"R. Amélia Vanso Magnoli, 120",-23.588049,-46.508926,onibus
409065,"R. Ailton Negrão Fazzio, 124",-23.578603,-46.5233,onibus
409066,"Av. Itaquera, 89",-23.558077,-46.521137,onibus
409067,"R. Pedro Rabelo, 209",-23.582085,-46.506931,onibus
409068,"R. Nsa. Sra. Das Dores, 637",-23.571481,-46.531997,onibus
409069,"R. Nsa. Sra. Das Dores, 630",-23.571516,-46.532002,onibus
409070,"R. Amélia Vanso Magnoli, 310",-23.585432,-46.507579,onibus
409071,"R. Rufino Fernandes Inivarri, 69",-23.587573,-46.506418,onibus
409075,"Av. Rio Das Pedras, 1016",-23.564311,-46.513929,onibus
409076,"R. Manuel Figueiredo, 344",-23.574506,-46.520772,onibus
409077,"R. Nello Selmi Dei, 32",-23.58075,-46.50974,onibus
409079,"R. Nello Selmi Dei, 20",-23.581594,-46.509708,onibus
409080,"Av. Inconfidência Mineira, 375",-23.582101,-46.518811,onibus
409082,"Av. Aguiar Da Beira, 299",-23.579311,-46.522561,onibus
409083,"Av. Aguiar Da Beira, 378",-23.572699,-46.519975,onibus
409084,"R. Nello Selmi Dei, 254",-23.582764,-46.509729,onibus
508317,"R. Pe. Tomás De Vilanova, 229",-23.54711,-46.483431,onibus
508319,"R. Pe. Tomás De Vilanova, 229",-23.547255,-46.483514,onibus
508327,"R. Pe. Jerônimo Machado, 61",-23.543015,-46.481492,onibus
508334,"R. Dr. Campos Moura, 95",-23.540384,-46.485367,onibus
508347,"R. Peixoto Werneck, 440",-23.543354,-46.487651,onibus
508354,"R. Saturnino De Souza, 525",-23.548236,-46.493769,onibus
508370,"R. Maciel Monteiro, 807",-23.542369,-46.492533,onibus
508379,"R. Maciel Monteiro, 151",-23.537249,-46.490359,onibus
508684,"R. Sonho Gaúcho, 50",-23.52584,-46.480781,onibus
508687,"R. Sonho Gaúcho, 502",-23.524382,-46.476618,onibus
508709,"R. Sino Vitória, 45",-23.529354,-46.479919,onibus
508938,"Av. Souza Bandeira, 200",-23.547967,-46.50179,onibus
508991,"Av. Eng. João Baptista Aranha, 135",-23.550522,-46.493206,onibus
509010,"Av. Cânio Lettiere, 0",-23.534727,-46.492775,onibus
509013,"R. Pe. Gabriel De Campos, 49",-23.549836,-46.487287,onibus
509014,"R. Pe. Gabriel De Campos, 71",-23.549641,-46.487087,onibus
509015,"R. Juazeiro Do Norte, 313",-23.529268,-46.487692,onibus
509017,"R. Iborepi, 111",-23.532782,-46.484453,onibus
509020,"R. Juazeiro Do Norte, 298",-23.529547,-46.487538,onibus
509021,"R. Juazeiro Do Norte, 610",-23.526775,-46.487821,onibus
509022,"Av. Águia De Haia, 1815",-23.530005,-46.474051,onibus
509023,"Av. Águia De Haia, 1637",-23.531595,-46.473721,onibus
509026,Terminal Metrô Artur Alvim,-23.540692,-46.482933,onibus
509028,"R. Juciri, 130",-23.54132,-46.476053,onibus
509029,"R. S. Vitório, 25",-23.544057,-46.495311,onibus
509030,"R. S. Vitório, 697",-23.549165,-46.495993,onibus
509033,"R. Dr. Xavier De Oliveira, 246",-23.549443,-46.49592,onibus
509035,"Av. Águia De Haia, 1255",-23.534977,-46.473961,onibus
509036,"R. Des. Rocha Portela, 62",-23.5374,-46.497012,onibus
509037,"R. Des. Rocha Portela, 386",-23.538378,-46.493889,onibus
509038,"R. Henrique Jacobs, 374",-23.538931,-46.491888,onibus
509039,"R. Henrique Jacobs, 802",-23.542449,-46.493517,onibus
509043,"Av. Calim Eid, 3200",-23.53094,-46.488255,onibus
509044,"Av. Calim Eid, 3672",-23.536979,-46.48491,onibus
509045,"Av. José Pinheiro Borges, 3",-23.541604,-46.481335,onibus
509046,"R. Igaroi, 42",-23.531284,-46.4871,onibus
509050,"R. Pontal, 209",-23.541476,-46.495076,onibus
509051,"R. Maciel Monteiro, 152",-23.537089,-46.490447,onibus
509053,"Av. Prof. Edgar Santos, 363",-23.548301,-46.498301,onibus
509058,"R. Dr. Campos Moura, 311",-23.541972,-46.483879,onibus
509059,"R. Dr. Campos Moura, 341",-23.54211,-46.483763,onibus
509060,"Av. Prof. Edgar Santos, 27",-23.54735,-46.501417,onibus
509061,"Av. Prof. Edgar Santos, 148",-23.547856,-46.500324,onibus
509062,"Av. Prof. Edgar Santos, 703",-23.550351,-46.495579,onibus
509063,"Av. Prof. Edgar Santos, 550",-23.549726,-46.496931,onibus
509064,"Av. Prof. Edgar Santos, 906",-23.551575,-46.494245,onibus
509066,"R. Dejanira, 118",-23.549461,-46.492072,onibus
509067,"R. Gabriel Angler, 75",-23.549112,-46.490321,onibus
509069,"R. Susana Dacre, 74",-23.547924,-46.490682,onibus
509070,"R. Susana Dacre, 66",-23.547839,-46.49153,onibus
509071,"R. Franca Alencar, 12",-23.547656,-46.491824,onibus
509072,"R. Gabriel Angler, 75",-23.549047,-46.490234,onibus
509073,"R. Des. Carneiro Ribeiro, 875",-23.5463,-46.490938,onibus
509074,"Av. Antônio Estevão De Carvalho, 2711",-23.534126,-46.499783,onibus
509075,"R. Adriano Rainaldi, 29",-23.548206,-46.490542,onibus
509076,"R. Vidal Prader, 94",-23.548727,-46.490723,onibus
509077,"Av. Hermilo Alves, 1105",-23.532626,-46.488098,onibus
509078,"R. Dr. Campos Moura, 158",-23.54062,-46.485072,onibus
509079,"R. Peixoto Werneck, 77",-23.540151,-46.486183,onibus
509082,"R. Pierre Jannsen, 171",-23.529759,-46.476153,onibus
509083,"Av. Frederick Hoffman, 126",-23.530103,-46.476875,onibus
509084,"R. Dr. Luiz Aires, 1136",-23.535972,-46.491263,onibus
509085,"R. Dr. Luiz Aires, 1261",-23.535774,-46.489881,onibus
509086,"R. Dr. Luiz Aires, 4045",-23.543211,-46.469493,onibus
509088,"R. Dr. Moacir Tavolaro, 1",-23.538641,-46.488111,onibus
509089,"R. Henrique Jacobs, 600",-23.540766,-46.49274,onibus
509090,"R. José Francisco Lopes, 383",-23.545748,-46.496924,onibus
509091,"R. José Francisco Lopes, 199",-23.545319,-46.498335,onibus
509092,"R. Dr. Nelson Madureira, 704",-23.546675,-46.499228,onibus
509093,"R. Dr. Nelson Madureira, 877",-23.547658,-46.497852,onibus
509094,"R. Tibaldo Pereira, 144",-23.547188,-46.4964,onibus
509095,Av. José Pinheiro Borges,-23.539219,-46.471451,onibus
509096,"R. S. Vitório, 505",-23.547449,-46.495857,onibus
509098,"R. S. Vitório, 520",-23.547713,-46.496034,onibus
509099,"R. Dr. Luiz Aires, 3092",-23.54356,-46.475903,onibus
509102,"R. Marciano Capella, 667",-23.533257,-46.490028,onibus
509110,"Av. José Pinheiro Borges, 4",-23.53841,-46.424365,onibus
509111,"Av. Esperantina, 1311",-23.535409,-46.475164,onibus
509112,"Av. Esperantina, 1311",-23.535409,-46.475164,onibus
600487,"R. Min. Godoy, 376",-23.532863,-46.669247,onibus
600539,"R. Traipu, 19",-23.53247,-46.662127,onibus
610774,"R. Margarida, 415",-23.529214,-46.66218,onibus
610820,"Av. Antártica, 213",-23.522676,-46.66875,onibus
610821,"Av. Lateral Do Viad. Antártica, 62",-23.522269,-46.668983,onibus
610833,"Av. Antártica, 575",-23.528875,-46.67602,onibus
610869,"Av. Nicolas Bôer, 510",-23.516262,-46.678889,onibus
614432,Baby Bariony C/B,-23.527608,-46.671511,onibus
614455,Pedro Corazza C/B,-23.515143,-46.689654,onibus
614508,"Av. Pres. Castelo Branco, 1000",-23.526423,-46.599844,onibus
614533,"R. Robert Bosch, 450",-23.522117,-46.671566,onibus
614534,"R. Robert Bosch, 469",-23.521946,-46.671596,onibus
614535,Av. Antártica,-23.522506,-46.668948,onibus
614537,R. Prof. Wilfrides Alves De Lima,-23.52735,-46.666781,onibus
614539,Av. Nicolas Bôer,-23.519816,-46.679389,onibus
614542,Terminal Barra Funda Lado Norte Plat. A,-23.525149,-46.666532,onibus
614543,Terminal Barra Funda Lado Norte Plat. A,-23.525157,-46.666352,onibus
614544,Terminal Barra Funda Lado Norte Plat. A,-23.525172,-46.666195,onibus
614546,Terminal Barra Funda Lado Norte Plat. A,-23.525176,-46.666035,onibus
614547,"Av. Antártica, 608",-23.528703,-46.676104,onibus
614548,Comendador Martinelli - C/B,-23.512135,-46.690321,onibus
614549,Comendador Martinelli - B/C,-23.512773,-46.690585,onibus
614550,Pedro Corazza - Plataforma 5,-23.514265,-46.690676,onibus
614552,"Av. Nicolas Bôer, 510",-23.516248,-46.679261,onibus
614560,Parada Extra C/B,-23.506404,-46.689026,onibus
614563,Av. Mário De Andrade,-23.52661,-46.666127,onibus
614566,R. Dr. Bento Teobaldo Ferraz,-23.524505,-46.670378,onibus
614567,"R. Dr. Edgard Theotonio Santana, 423",-23.515934,-46.676078,onibus
614568,Av. Mário De Andrade,-23.525749,-46.671321,onibus
614570,Ac. Via Lateral Vd. Pompeia,-23.522048,-46.679609,onibus
614571,"R. Júlio Gonzalez, 132",-23.526144,-46.671425,onibus
614572,"R. Tagipuru, 917",-23.527108,-46.669224,onibus
614573,"Av. Mq. De São Vicente, 1771",-23.519327,-46.675348,onibus
614574,"R. Gustav Willi Borghoff, 480",-23.524638,-46.67527,onibus
614578,"Pça. Pascoal Martins, 54",-23.518844,-46.674723,onibus
614581,"R. Pe. Antônio Tomás, 144",-23.527211,-46.677399,onibus
614583,Terminal Barra Funda Lado Sul Plat. B,-23.526276,-46.66727,onibus
614584,Parada 2 - Quirino Dos Santos - B/C,-23.522158,-46.663299,onibus
614586,"R. Gustav Willi Borghoff, 480",-23.524509,-46.675117,onibus
614590,"Ac. Via Lateral Vd. Pompeia, 150",-23.522776,-46.679312,onibus
706304,"Av. Paulista, 900",-23.5659,-46.650929,onibus
706308,Parada Avenida Paulista,-23.566211,-46.648198,onibus
706309,Parada Cincinato Braga,-23.565941,-46.647922,onibus
706310,Parada Treze De Maio,-23.563945,-46.646421,onibus
706311,Parada Treze De Maio,-23.563731,-46.646118,onibus
706319,Parada Treze De Maio,-23.569805,-46.644035,onibus
706320,"R. Treze De Maio, 1855",-23.569846,-46.6438,onibus
706322,Parada Treze De Maio,-23.566288,-46.644605,onibus
706325,Parada 14 Bis B/C,-23.555934,-46.650112,onibus
706334,Parada 14 Bis C/B,-23.555608,-46.649766,onibus
706357,"R. Cincinato Braga, 144",-23.569313,-46.644804,onibus
706361,"R. Rui Barbosa, 333",-23.558383,-46.645243,onibus
706367,"R. Antônio Carlos, 196",-23.557171,-46.657021,onibus
706372,Pça. D. Orione,-23.560311,-46.645559,onibus
706376,"Av. Brig. Luís Antônio, 1167",-23.559694,-46.642622,onibus
706377,"Av. Brig. Luís Antônio, 931",-23.557922,-46.641096,onibus
809564,"R. Pe. Adelino, 1119",-23.543841,-46.583066,onibus
809671,"R. Serra Da Bocaina, 320",-23.546475,-46.588252,onibus
809675,"Av. Álvaro Ramos, 779",-23.544156,-46.586279,onibus
810534,"Av. Ariston De Azevedo, 75",-23.528195,-46.601933,onibus
810536,"Pça. Gen. Humberto Souza Mello, 56",-23.530694,-46.602342,onibus
810550,"R. Herval, 715",-23.540606,-46.588469,onibus
810556,"R. Serra Da Bocaina, 126",-23.546963,-46.590586,onibus
810563,R. David Zeiger,-23.547253,-46.579971,onibus
810583,"R. S. Leopoldo, 308",-23.540884,-46.599837,onibus
810586,"R. Paulo Andrighetti, 55",-23.529035,-46.603469,onibus
810588,"Pça. Gen. Humberto Souza Mello, 893",-23.53034,-46.603067,onibus
810590,Terminal Metrô Belém (sul) Pl. D,-23.543289,-46.589189,onibus
810591,"R. Júlio Cesar Da Silva, 72",-23.538214,-46.605602,onibus
810592,"Pça. Mj. Guilherme Rudge, 59",-23.537436,-46.588989,onibus
810593,"R. Itaqueri, 1122",-23.556723,-46.588605,onibus
810601,"R. Herval, 1011",-23.540132,-46.585778,onibus
810602,"R. Sta. Rita, 56",-23.53337,-46.612293,onibus
810604,"Av. Cdssa. Elisabeth De Robiano, 1256",-23.52732,-46.565489,onibus
810605,"R. Behring, 236",-23.536282,-46.60572,onibus
810606,"R. Pimenta Bueno, 70",-23.537352,-46.588048,onibus
810607,"R. Ulisses Cruz, 85",-23.53462,-46.584707,onibus
810608,"R. Cons. Cotegipe, 101",-23.538411,-46.592581,onibus
810610,"R. Pe. Adelino, 273",-23.545368,-46.591179,onibus
810612,"Av. Alcântara Machado, 4290",-23.542954,-46.584677,onibus
810613,"R. Pe. Adelino, 855",-23.544356,-46.585917,onibus
810614,"Av. Guilherme Cotching, 133",-23.529256,-46.598113,onibus
910689,"R. Barra Do Tibagi, 1090",-23.525761,-46.647656,onibus
910768,"R. Prates, 898",-23.526231,-46.634803,onibus
910776,"Av. Do Estado, 5854",-23.558956,-46.615204,onibus
910777,Luz,-23.535297,-46.634703,onibus
910792,"R. Guarani, 368",-23.527804,-46.637215,onibus
910794,"R. Vítor Airosa, 131",-23.527741,-46.626775,onibus
910795,"R. Guaporé, 385",-23.523561,-46.626543,onibus
910800,Parada Rudge C/B,-23.52418,-46.64986,onibus
910803,"R. Neves De Carvalho, 780",-23.518982,-46.650258,onibus
910804,"R. Guarani, 56",-23.528769,-46.634406,onibus
910808,"R. Jorge Velho, 122",-23.527111,-46.632329,onibus
910809,"R. Silva Pinto, 387",-23.52802,-46.638926,onibus
910810,"R. Visc. De Taunay, 610",-23.52207,-46.649443,onibus
910811,"R. Anhaia, 955",-23.522139,-46.646257,onibus
910813,"Av. Santos Dumont, 1318",-23.516163,-46.629538,onibus
910816,"R. Júlio Conceição, 569",-23.527608,-46.641574,onibus
910817,"R. Barra Do Tibagi, 810",-23.524926,-46.645837,onibus
910818,"R. Anhaia, 1321",-23.519261,-46.647887,onibus
910819,"R. José Paulino, 880",-23.526766,-46.641281,onibus
910820,Pça. Da Luz,-23.534636,-46.635022,onibus
910821,"R. Da Graça, 427",-23.527451,-46.639807,onibus
910822,Tea,-23.517704,-46.629774,onibus
1009884,Parada 1/2/3 - Concórdia,-23.542172,-46.615544,onibus
1009889,"R. Visc. De Abaete, 79",-23.54061,-46.61461,onibus
1009966,Piratininga,-23.544882,-46.619576,onibus
1010053,Brás,-23.545582,-46.616314,onibus
1010054,Brás,-23.547751,-46.616127,onibus
1010076,"Av. Alcântara Machado, 773",-23.552358,-46.617495,onibus
1010082,"R. Da Figueira, 249",-23.547258,-46.626488,onibus
1010092,Parada Caetano Pinto,-23.546153,-46.622181,onibus
1010093,Parada Piratininga,-23.545098,-46.62006,onibus
1010097,"R. Dr. Ricardo Gonçalves, 240",-23.538669,-46.613832,onibus
1010100,Gasômetro,-23.544272,-46.623178,onibus
1010101,Av. Do Estado,-23.540113,-46.627476,onibus
1010102,"Av. Do Estado, 2269",-23.534749,-46.625052,onibus
1010103,"R. Do Hipódromo, 39",-23.5409,-46.612637,onibus
1010105,"R. João Teodoro, 808",-23.534377,-46.624791,onibus
1010107,"Av. Alcântara Machado, 91",-23.551551,-46.624211,onibus
1113263,"R. Inácio Xavier De Carvalho, 269",-23.47525,-46.677243,onibus
1113267,"Av. Dep. Cantidio Sampaio, 140",-23.473512,-46.67108,onibus
1113437,"Av. Inajar De Souza, 5476",-23.462746,-46.67282,onibus
1113554,"R. Parapuã, 1096",-23.475064,-46.690254,onibus
1113914,"R. Eduardo Costa, 190",-23.448298,-46.697022,onibus
1113915,"R. Domingos Arevalo, 771",-23.447419,-46.696996,onibus
1113919,"R. Feliciano Malábia, 50",-23.450811,-46.696982,onibus
1113942,"Av. Dep. Cantidio Sampaio, 5647",-23.441784,-46.707442,onibus
1114016,"Av. Elísio Teixeira Leite, 4526",-23.460815,-46.715267,onibus
1114034,"Av. Manoel Bolivar, 313",-23.457648,-46.69971,onibus
1114044,"R. Alfredo Lucio, 170",-23.458668,-46.695115,onibus
1114051,"R. Do Outono, 706",-23.461325,-46.692919,onibus
1114053,"R. Joaquim Ferreira Da Rocha, 1175",-23.464974,-46.694209,onibus
1114071,"R. Joaquim Ferreira Da Rocha, 738",-23.467756,-46.690961,onibus
1114073,"R. Joaquim Ferreira Da Rocha, 491",-23.468798,-46.689397,onibus
1114076,"R. Rosalvo José Da Silva, 134",-23.456784,-46.702963,onibus
1114080,"R. Aurélio Brasil Ribeiro, 271",-23.456978,-46.700826,onibus
1114085,"R. Domingos Vega, 718",-23.46316,-46.701279,onibus
1114089,"R. Rodolfo Pereira Lima, 156",-23.45825,-46.697494,onibus
1114115,"Estr. Lázaro Amâncio De Barros, 309",-23.466635,-46.694673,onibus
1114173,R. Aparecida Do Taboado,-23.4619,-46.713199,onibus
1114189,"R. Raimundo Carneiro, 194",-23.456102,-46.700521,onibus
1114190,"R. Aurélio Brasil Ribeiro, 352",-23.456442,-46.702133,onibus
1114208,"R. Rodolfo Pereira Lima, 521",-23.457514,-46.696333,onibus
1114239,"R. Aurélio Brasil Ribeiro, 565",-23.459034,-46.701768,onibus
1114241,"Av. Dep. Cantidio Sampaio, 4306",-23.452432,-46.699888,onibus
1114244,"R. Manoel Nascimento Pinto, 65",-23.462127,-46.688563,onibus
1114247,"Av. Dep. Cantidio Sampaio, 1111",-23.467738,-46.677927,onibus
1114248,"R. Jorge Pires Ramalho, 345",-23.46131,-46.698786,onibus
1114249,"R. João Pinto De Oliveira, 156",-23.461631,-46.690894,onibus
1114252,"R. Carlos Marighella, 115",-23.462613,-46.681533,onibus
1114253,"R. Henry Charles Potel, 714",-23.471484,-46.67769,onibus
1114254,"R. Rosalvo José Da Silva, 137",-23.456957,-46.702888,onibus
1114255,"R. Braço Do Norte, 128",-23.460761,-46.709564,onibus
1114256,"R. Flores De Goiás, 145",-23.458216,-46.707932,onibus
1114257,"R. Lagoa Da Serra, 90",-23.458966,-46.709415,onibus
1114258,"R. Sítio D'abadia, 160",-23.459512,-46.709792,onibus
1114259,"R. Sítio D'abadia, 78",-23.460389,-46.708628,onibus
1114260,"R. Aparecida Do Taboado, 297",-23.461272,-46.711172,onibus
1114261,"R. Alto Tocantins, 133",-23.460789,-46.710816,onibus
1114262,"R. Pe. Achilles Silvestre, 14",-23.460799,-46.712544,onibus
1114263,"Av. Guilherme De Almeida, 258",-23.467164,-46.681042,onibus
1114265,"R. Henry Charles Potel, 859",-23.470202,-46.677192,onibus
1114266,"Av. Dep. Cantidio Sampaio, 789",-23.47051,-46.67635,onibus
1114267,R. Ilha De Itaparica,-23.453188,-46.707211,onibus
1114269,"R. Talha Mar, 11",-23.45284,-46.699412,onibus
1114270,"R. Cirilo Correia, 36",-23.44667,-46.699579,onibus
1114271,"R. Fortunato Devoto, 41",-23.449545,-46.696064,onibus
1114273,"R. Itaipava, 1",-23.464761,-46.694758,onibus
1114274,"R. Benedito Egídio Barbosa, 45",-23.459977,-46.698054,onibus
1114275,"R. Pajuçara, 161",-23.468041,-46.683132,onibus
1114276,"R. Paramirim, 1116",-23.466262,-46.689342,onibus
1114277,"R. Rodolfo Pereira Lima, 215",-23.458033,-46.697546,onibus
1114278,"R. Paulo Limoeiro, 8",-23.457423,-46.696345,onibus
1114279,R. Luís José Junqueira Freire,-23.472566,-46.683246,onibus
1114283,"R. Manoel Aquilino Dos Santos, 1000",-23.455884,-46.678386,onibus
1114285,R. Classicismo,-23.477905,-46.685878,onibus
1114286,"R. Rosa Alboni, 57",-23.45676,-46.684917,onibus
1114287,"Av. Dep. Cantidio Sampaio, 140",-23.473473,-46.67113,onibus
1114288,"R. Rosa Alboni, 51",-23.455741,-46.68347,onibus
1114289,"Estr. Lázaro Amâncio De Barros, 272",-23.466743,-46.694662,onibus
1114296,"R. Emílio Castro, 423",-23.448241,-46.699265,onibus
1114297,"R. Emílio Castro, 422",-23.448284,-46.699173,onibus
1114298,"R. Emílio Castro, 39",-23.450413,-46.697844,onibus
1114299,"R. Emílio Castro, 48",-23.450362,-46.697927,onibus
1114300,"R. Daniel Cerri, 304",-23.447262,-46.698691,onibus
1114301,"R. Emílio Castro, 307",-23.449186,-46.699261,onibus
1114303,"R. Domingos Vega, 88",-23.467654,-46.697961,onibus
1114304,"R. Aparecida Do Taboado, 1096",-23.457405,-46.705718,onibus
1114305,"R. Aparecida Do Taboado, 1121",-23.457606,-46.705847,onibus
1114306,"Estr. Da Cachoeira, 500",-23.455771,-46.706198,onibus
1114308,"Estr. Da Cachoeira, 131",-23.457012,-46.705823,onibus
1114309,"Estr. Da Cachoeira, 79",-23.456675,-46.706011,onibus
1114310,"R. Br. De Santo Ângelo, 38",-23.475037,-46.689849,onibus
1114311,"R. Br. De Santo Ângelo, 55",-23.474942,-46.689991,onibus
1114312,"R. José Antônio Do Nascimento, 9",-23.459001,-46.678834,onibus
1114313,"R. Agenor Alves Meira, 320",-23.459005,-46.678041,onibus
1114314,"R. Agenor Alves Meira, 598",-23.457912,-46.680167,onibus
1114315,"R. Parapuã, 1135",-23.474838,-46.690242,onibus
1114318,"R. Nícia Coutinho Patrício, 490",-23.462998,-46.684952,onibus
1114319,"R. Nícia Coutinho Patrício, 515",-23.462989,-46.685015,onibus
1114320,"R. Nícia Coutinho Patrício, 89",-23.464975,-46.683523,onibus
1114322,"Av. José Da Natividade Saldanha, 108",-23.47349,-46.684195,onibus
1114323,"R. Nortelândia, 204",-23.452819,-46.687419,onibus
1114324,"R. Monte Alegre Do Sul, 1216",-23.439025,-46.708562,onibus
1114325,"R. Monte Alegre Do Sul, 1144",-23.439352,-46.709624,onibus
1114326,"R. Braço Do Norte, 50",-23.461504,-46.708422,onibus
1114327,"R. Feliciano Malábia, 287",-23.451353,-46.695853,onibus
1114328,"R. Feliciano Malábia, 304",-23.451403,-46.695976,onibus
1114331,"R. Geraldo Marino, 98",-23.453644,-46.692462,onibus
1114332,"R. Henriqueta Pantaleão, 59",-23.453605,-46.694917,onibus
1114333,"R. Antônio Rocha Mattos Filho, 18",-23.452288,-46.694455,onibus
1114334,"Av. Dep. Cantidio Sampaio, 3433",-23.455741,-46.692926,onibus
1114335,R. A,-23.451507,-46.67678,onibus
1114336,R. A,-23.45137,-46.677034,onibus
1114337,"R. Firminópolis, 646",-23.450486,-46.687552,onibus
1114339,"R. Emílio Castro, 541",-23.447268,-46.699146,onibus
1114340,"Av. Dep. Cantidio Sampaio, 4354",-23.451901,-46.700008,onibus
1114341,"R. Itatiba Do Sul, 474",-23.451234,-46.686916,onibus
1114343,"R. Virajubá, 163",-23.467443,-46.689957,onibus
1114344,"R. Bernardo De Vera, 11",-23.455988,-46.681801,onibus
1114346,"R. Rendeira, 5",-23.452109,-46.68573,onibus
1114349,"Av. Dep. Cantidio Sampaio, 4595",-23.446137,-46.704822,onibus
1114355,"R. Frederico Lacroze, 198",-23.449597,-46.696938,onibus
1114358,R. Nícia Coutinho Patrício,-23.466199,-46.68264,onibus
1114359,"R. Daniel Cerri, 999",-23.446214,-46.69209,onibus
1114360,"R. Do Farol, 447",-23.466348,-46.690781,onibus
1114361,"Av. Dep. Cantidio Sampaio, 2775",-23.459585,-46.688285,onibus
1114362,"Av. Dep. Cantidio Sampaio, 2751",-23.459422,-46.688163,onibus
1114363,"R. Nícia Coutinho Patrício, 305",-23.464694,-46.683839,onibus
1114364,"R. Daniel Cerri, 1016",-23.446161,-46.691595,onibus
1114365,"R. Pe. Manoel Honorato, 280",-23.463692,-46.683568,onibus
1114366,"R. Pe. Manoel Honorato, 337",-23.463307,-46.684049,onibus
1114367,"Av. Gen. Penha Brasil, 2031",-23.457755,-46.675901,onibus
1114368,"R. Rodolfo Pereira Lima, 7",-23.459879,-46.697738,onibus
1114369,"R. Rodolfo Pereira Lima, 2",-23.459874,-46.697712,onibus
1114372,"Estr. Lázaro Amâncio De Barros, 1298",-23.459203,-46.698779,onibus
1114373,"Estr. Lázaro Amâncio De Barros, 1312",-23.459057,-46.698772,onibus
1114375,"R. Grumixa, 4391",-23.45159,-46.699927,onibus
1114376,"R. Emílio Castro, 320",-23.449155,-46.699059,onibus
1114377,"Av. Dep. Cantidio Sampaio, 6095",-23.440052,-46.708384,onibus
1114379,"R. Manoel Aquilino Dos Santos, 687",-23.455977,-46.68168,onibus
1114381,Av. João Paulo Primeiro,-23.492148,-46.690778,onibus
1206709,Parada Armando Fairbanks,-23.572107,-46.705635,onibus
1206717,Parada Caxingui,-23.569896,-46.713117,onibus
1206720,Parada Afonso Vaz,-23.569701,-46.716033,onibus
1206721,"Av. Corifeu De Azevedo Marques, 291",-23.570458,-46.717932,onibus
1206722,"Rod. Raposo Tavares, 181",-23.574716,-46.716748,onibus
1206730,"Av. Caxingui, 626",-23.574317,-46.712292,onibus
1206901,"R. Martinho Claro, 730",-23.576953,-46.723657,onibus
1206902,"R. Hugo Carotini, 281",-23.577453,-46.722506,onibus
1206904,"R. Martinho Claro, 450",-23.576151,-46.721709,onibus
1206908,"R. Domingos Barbieri, 193",-23.578374,-46.720609,onibus
1206909,"R. Domingos Barbieri, 150",-23.578598,-46.720483,onibus
1206916,"Av. Eliseu De Almeida, 1630",-23.584326,-46.727924,onibus
1206957,"Ac. Acesso, 628",-23.584011,-46.736703,onibus
1206959,"R. Ari Aps, 80",-23.584908,-46.739914,onibus
1207005,"Av. Eng. Heitor Antônio Eiras Garcia, 363",-23.574858,-46.739511,onibus
1207013,Parada Cel. Camisao,-23.573599,-46.731689,onibus
1207019,Parada Pereira Do Lago,-23.574327,-46.730426,onibus
1207025,"Av. Corifeu De Azevedo Marques, 1495",-23.574652,-46.727802,onibus
1207028,Parada Santanesia,-23.572401,-46.722469,onibus
1207029,"Av. Corifeu De Azevedo Marques, 1117",-23.57347,-46.725138,onibus
1207032,Cultura Japonesa,-23.562835,-46.719542,onibus
1207041,Biociências I,-23.566507,-46.73041,onibus
1207042,Biociências II,-23.566309,-46.730232,onibus
1207345,"Av. Eng. Heitor Antônio Eiras Garcia, 2384",-23.58457,-46.753054,onibus
1211268,Arquitetura Urbanismo Design I,-23.560674,-46.730883,onibus
1211269,Oceanográfico,-23.560829,-46.730869,onibus
1211339,Butantã,-23.571874,-46.708048,onibus
1211342,"R. Ari Dos Santos, 37",-23.584417,-46.73975,onibus
1211348,"Av. Eliseu De Almeida, 141",-23.57616,-46.712983,onibus
1211349,"Av. Valdemar Ferreira, 112",-23.571687,-46.704831,onibus
1211351,"Av. Dr. Vital Brasil, 334",-23.571534,-46.707432,onibus
1211359,Terminal Metrô Butantã,-23.571891,-46.708796,onibus
1211361,R. Mmdc Ref.: Terminal Butantã,-23.572151,-46.709027,onibus
1211364,"Av. Dr. Vital Brasil, 569",-23.570983,-46.70966,onibus
1211365,"R. Mmdc, 380",-23.572057,-46.709319,onibus
1211366,"Av. Valdemar Ferreira, 315",-23.570283,-46.7061,onibus
1211369,"R. Cabral De Menezes, 20",-23.576433,-46.733395,onibus
1211370,"R. Mmdc, 364 Ref.: Lateral Terminal Butantã",-23.572251,-46.708867,onibus
1211371,"Av. Corifeu De Azevedo Marques, 547",-23.571314,-46.720165,onibus
1211372,"R. Ari Aps, 368",-23.58488,-46.742855,onibus
1211373,Terminal Metrô Butantã,-23.571884,-46.708304,onibus
1211376,Terminal USP (cidade Universitária),-23.552258,-46.732017,onibus
1211380,"R. Alvarenga, 1099",-23.572409,-46.711457,onibus
1211381,Parada Exclusiva,-23.571255,-46.709227,onibus
1211386,"R. Alvarenga, 1584",-23.568035,-46.711647,onibus
1211391,Terminal Metrô Butantã,-23.571713,-46.709314,onibus
1211392,"R. Pirajussara, 546",-23.5721,-46.708089,onibus
1211395,Educação Física I,-23.564346,-46.713094,onibus
1211396,Cptm Cidade Universitária I,-23.561744,-46.713219,onibus
1211397,Cptm Cidade Universitária II,-23.561317,-46.712868,onibus
1211398,CrUSP I,-23.557467,-46.719787,onibus
1211399,Raia Olímpica,-23.556683,-46.720517,onibus
1211401,São Paulo - Morumbi,-23.586132,-46.723471,onibus
1211402,Terminal Morumbi,-23.58572,-46.724003,onibus
1211404,Terminal Morumbi,-23.585784,-46.72397,onibus
1211408,Terminal Morumbi,-23.58562,-46.724134,onibus
1211411,"R. Pereira Do Lago, 108",-23.575855,-46.7303,onibus
1211412,R. Prof. Orlando Marques Paiva,-23.567996,-46.740378,onibus
1211417,"R. Ari Aps, 582",-23.584817,-46.745645,onibus
1211418,"Av. Afrânio Peixoto, 424",-23.567229,-46.70888,onibus
1211419,Pça. Vicente Rodrigues,-23.568559,-46.708164,onibus
1211421,"Av. Afrânio Peixoto, 401",-23.566916,-46.708737,onibus
1211422,Rua Da Biblioteca,-23.561479,-46.723713,onibus
1211423,Estação Hidrogênio,-23.553469,-46.73239,onibus
1211424,Metalurgia,-23.552224,-46.731491,onibus
1211425,Farmácia E Química II,-23.565906,-46.725313,onibus
1211426,Matemática E Estatística,-23.559089,-46.732653,onibus
1211427,"R. Prof. Máximo Ribeiro Nunes, 651",-23.584234,-46.735939,onibus
1211428,"R. Alvarenga, 1951",-23.564643,-46.711895,onibus
1313272,"Av. Dep. Emílio Carlos, 3747",-23.476019,-46.669985,onibus
1313284,"Av. Imirim, 4353",-23.475241,-46.665108,onibus
1313286,"Ac. Acesso, 399",-23.476636,-46.667505,onibus
1313298,"Av. Parada Pinto, 911",-23.469373,-46.661539,onibus
1313301,"R. Água Preta, 188",-23.473353,-46.657125,onibus
1313406,"Av. Gen. Penha Brasil, 257",-23.468954,-46.667405,onibus
1313407,"Av. Gen. Penha Brasil, 226",-23.469086,-46.667006,onibus
1313408,"R. Gomes Leal, 56",-23.467819,-46.666942,onibus
1313431,"Av. Masao Watanabe, 439",-23.463232,-46.665916,onibus
1313433,"Av. Gen. Penha Brasil, 1389",-23.460878,-46.671089,onibus
1313489,"R. Eugênio Castro, 93",-23.465944,-46.664336,onibus
1313491,"R. Solar, 163",-23.454709,-46.657976,onibus
1313492,"R. Solar, 163",-23.454593,-46.657824,onibus
1313501,"R. Koshun Takara, 338",-23.462206,-46.660413,onibus
1313502,"Av. Parada Pinto, 1161",-23.469648,-46.659173,onibus
1313503,R. Koshun Takara,-23.463881,-46.658461,onibus
1313504,"R. Koshun Takara, 472",-23.465103,-46.655861,onibus
1313505,"R. Koshun Takara, 720",-23.463116,-46.662609,onibus
1313506,"R. Koshun Takara, 85",-23.463276,-46.658432,onibus
1313507,"R. Koshun Takara, 105",-23.46278,-46.662549,onibus
1313509,"R. Gomes Leal, 560",-23.465919,-46.662528,onibus
1313512,"Av. Francisco Machado Da Silva, 1713",-23.454564,-46.652287,onibus
1313513,"R. Dario Vilares Barbosa, 24",-23.457058,-46.669778,onibus
1313516,Av. Inajar De Souza,-23.472329,-46.670181,onibus
1313517,Av. Inajar De Souza,-23.472365,-46.670444,onibus
1313518,R. Forte De São Caetano,-23.457458,-46.65615,onibus
1313520,"R. Min. Lins De Barros, 394",-23.45795,-46.667552,onibus
1313523,"R. Mendonca Júnior, 622",-23.476873,-46.664044,onibus
1313524,"R. Mendonca Júnior, 658",-23.476746,-46.66348,onibus
1313525,"R. Solar, 131",-23.454709,-46.658416,onibus
1313526,Parada Maternidade C/B,-23.479995,-46.673344,onibus
1313527,Parada Maternidade B/C,-23.480029,-46.673113,onibus
1313528,"Av. João Marcelino Branco, 530",-23.476386,-46.668755,onibus
1313529,"Av. João Marcelino Branco, 494",-23.476454,-46.668333,onibus
1313530,"Av. Gen. Penha Brasil, 1630",-23.459847,-46.672915,onibus
1313531,"R. Gomes Leal, 300",-23.467032,-46.664713,onibus
1313532,"Av. Francisco Machado Da Silva, 460",-23.45441,-46.662121,onibus
1313533,Av. Inajar De Souza,-23.4793,-46.673493,onibus
1313534,"Av. Imirim, 3206",-23.480229,-46.656583,onibus
1313535,"R. Dario Vilares Barbosa, 1001",-23.453453,-46.671732,onibus
1313537,R. Solar,-23.455161,-46.659177,onibus
1313538,"R. Dario Vilares Barbosa, 143",-23.458009,-46.670652,onibus
1313539,R. Forte De São Caetano,-23.457103,-46.656109,onibus
1313541,"Av. Francisco Machado Da Silva, 149",-23.456593,-46.661628,onibus
1313542,"Av. Francisco Machado Da Silva, 546",-23.455499,-46.654627,onibus
1313544,"Av. Imirim, 3593",-23.479986,-46.661122,onibus
1313545,"R. Palmas De São Moisés, 414",-23.455713,-46.654491,onibus
1313546,"Av. Francisco Machado Da Silva, 1415",-23.455156,-46.652712,onibus
1313547,"R. Palmas De São Moisés, 320",-23.45634,-46.65504,onibus
1313548,"Av. Francisco Machado Da Silva, 1414",-23.455628,-46.653034,onibus
1313549,"R. Domingos José Sapienza, 266",-23.46806,-46.650299,onibus
1313552,"R. Almir Rodrigues, 387",-23.468102,-46.653143,onibus
1313553,"Av. Francisco Machado Da Silva, 1",-23.455514,-46.654292,onibus
1313554,"Av. Maria Antônia Martins, 344",-23.462951,-46.658023,onibus
1313555,"Av. Maria Antônia Martins, 343",-23.463019,-46.657789,onibus
1313556,Av. Francisco Machado Da Silva,-23.455516,-46.65558,onibus
1313557,Av. Francisco Machado Da Silva,-23.454518,-46.65658,onibus
1313558,"Av. Francisco Machado Da Silva, 856",-23.454531,-46.659176,onibus
1313560,"R. Anfitrião, 235",-23.456209,-46.65975,onibus
1313561,Parada Exclusiva,-23.471749,-46.67025,onibus
1313562,"Av. Inajar De Souza, 4400",-23.472963,-46.670074,onibus
1313565,"Av. Mariana Caligiori Ronchetti, 420",-23.461125,-46.654231,onibus
1313567,Pça. Lions Clube-imirim,-23.476504,-46.663388,onibus
1313568,Terminal Vila Nova Cachoeirinha,-23.47539,-46.670275,onibus
1313569,Ac. Acesso,-23.476579,-46.667581,onibus
1313570,Ac. Acesso,-23.476574,-46.667489,onibus
1313572,"R. Afonso Lopes Vieira, 150",-23.467288,-46.667093,onibus
1313573,"R. Afonso Lopes Vieira, 474",-23.465187,-46.665378,onibus
1313574,"R. Vinte E Oito De Janeiro, 372",-23.467926,-46.65972,onibus
1313576,"R. Vinte E Oito De Janeiro, 372",-23.468368,-46.659048,onibus
1313577,"R. Dos Patis, 676",-23.47374,-46.659098,onibus
1405614,"R. Pres. Soares Brandão, 250",-23.566527,-46.606035,onibus
1405624,"R. Clímaco Barbosa, 659",-23.565965,-46.614604,onibus
1405646,"R. Eng. Prudente, 35",-23.571646,-46.616507,onibus
1405658,"R. Heitor Peixoto, 537",-23.575401,-46.621759,onibus
1405659,"R. Heitor Peixoto, 480",-23.575332,-46.62298,onibus
1410017,"R. Luís Gama, 803",-23.560991,-46.621606,onibus
1410032,"R. Serra De Paracaina, 264",-23.561183,-46.613667,onibus
1410037,"Av. Do Estado, 5533",-23.558134,-46.615861,onibus
1410038,"Av. Pres. Wilson, 1276",-23.564785,-46.606354,onibus
1410074,Estação Metrô D. Pedro B/C,-23.55072,-46.626853,onibus
1410075,Estacao Ana Neri B/C,-23.559003,-46.61465,onibus
1410076,Estacao Alberto Lion B/C,-23.564183,-46.611236,onibus
1410078,Estacao Ana Neri C/B,-23.559044,-46.614686,onibus
1410079,Estacao Alberto Lion C/B,-23.564195,-46.611271,onibus
1410080,Estação Metrô D. Pedro C/B,-23.55073,-46.626911,onibus
1410084,"Av. D. Pedro I - Pista Central, 100",-23.565572,-46.611746,onibus
1410086,"Av. Lacerda Franco, 282",-23.565073,-46.622823,onibus
1410087,Pça. Nina Rodrigues,-23.557476,-46.626546,onibus
1410088,"Av. Lins De Vasconcelos, 1049",-23.572656,-46.62277,onibus
1410089,"R. Prof. Demostenes Batista Figueira Marques, 8",-23.558663,-46.625109,onibus
1410090,"R. Prof. Demostenes Batista Figueira Marques, 16",-23.558334,-46.622339,onibus
1410091,"R. Albuquerque Maranhão, 97",-23.564297,-46.621673,onibus
1410092,"Av. Do Estado, 5005",-23.556409,-46.621245,onibus
1410093,"Av. Do Estado, 5334",-23.557908,-46.618246,onibus
1410095,"Pça. Alberto Lion, 84",-23.564432,-46.612229,onibus
1410097,"R. Independência, 1001",-23.56763,-46.612737,onibus
1410098,"Av. Pres. Wilson, 620",-23.560122,-46.608477,onibus
1502864,"R. Joaquim Nabuco, 732",-23.627748,-46.679204,onibus
1502866,"R. Joaquim Nabuco, 1063",-23.629325,-46.676998,onibus
1502867,"R. Joaquim Nabuco, 1146",-23.62993,-46.676496,onibus
1502871,"R. Joaquim Nabuco, 1702",-23.633285,-46.672337,onibus
1502872,"R. Joaquim Nabuco, 2014",-23.635154,-46.669982,onibus
1506086,"Av. Jorn. Roberto Marinho, 2200",-23.621502,-46.679781,onibus
1506092,"Av. Jorn. Roberto Marinho, 2408",-23.624315,-46.677389,onibus
1506127,"R. Dr. Jesuíno Maciel, 2031",-23.626534,-46.663821,onibus
1506150,"R. Otávio Tarquínio De Souza, 702",-23.618187,-46.667954,onibus
1506160,Joaquim Nabuco C/B,-23.625558,-46.682978,onibus
1506163,Joaquim Nabuco B/C,-23.625634,-46.682873,onibus
1506179,"Av. Washington Luiz, 5320",-23.632132,-46.668867,onibus
1506190,"Av. Jorn. Roberto Marinho, 3228",-23.629756,-46.673767,onibus
1506191,"R. Cde. De Porto Alegre, 1402",-23.619895,-46.671387,onibus
1506192,"R. Félix De Sousa, 69",-23.623011,-46.661904,onibus
1506202,"Av. Pedro Bueno, 1737",-23.639029,-46.658905,onibus
1506203,"Av. Pedro Bueno, 1752",-23.638889,-46.658961,onibus
1506204,"Av. Jorn. Roberto Marinho, 350",-23.634767,-46.666969,onibus
1506205,"R. Otávio Tarquínio De Souza, 377",-23.620487,-46.665171,onibus
1506206,"R. Constantino De Souza, 1025",-23.620596,-46.676643,onibus
1506207,"Av. Washington Luiz, 5955",-23.629078,-46.666178,onibus
1506209,Pça. Cte. Lineu Gomes,-23.626479,-46.659882,onibus
1602565,"R. Eng. Domicio De L. Pacheco E Silva, 209",-23.681761,-46.680848,onibus
1602573,"Av. Nsa. Sra. Do Sabará, 2946",-23.680393,-46.684025,onibus
1602574,"Av. Nsa. Sra. Do Sabará, 2909",-23.679709,-46.68432,onibus
1602608,"Av. Interlagos, 1260",-23.664338,-46.678619,onibus
1602969,"Av. Washington Luiz, 1882",-23.65234,-46.687716,onibus
1603069,"R. Cristalino Rolim De Freitas, 75",-23.663394,-46.707151,onibus
1603199,"R. Zike Tuma, 415",-23.689819,-46.672841,onibus
1603243,R. S. Canuto,-23.682175,-46.675891,onibus
1603244,R. S. Canuto,-23.682052,-46.675729,onibus
1603263,"R. Miguel Yunes, 545",-23.690399,-46.686514,onibus
1603264,"R. Miguel Yunes, 500",-23.687157,-46.689715,onibus
1603283,"Av. João Peixoto Viegas, 860",-23.673064,-46.673404,onibus
1603294,"R. Danaides, 130",-23.662591,-46.692734,onibus
1603300,"R. David Eid, 1057",-23.678613,-46.670648,onibus
1603302,"R. Eng. Domicio De L. Pacheco E Silva, 501",-23.683427,-46.678523,onibus
1603305,Pça. Camafeu,-23.677866,-46.701592,onibus
1603306,"R. Eng. Alyrio Hugueney De Mattos, 195",-23.662636,-46.680864,onibus
1603307,"Av. Nsa. Sra. Do Sabará, 4090",-23.689087,-46.679918,onibus
1603308,"R. Sg. Geraldo Sant´ana, 683",-23.663284,-46.684545,onibus
1603309,"R. Sg. Geraldo Sant´ana, 766",-23.663422,-46.683944,onibus
1603312,"R. Prof. Guilherme Belfort Sabino, 1561",-23.664886,-46.679656,onibus
1603314,"R. Sant´ana, 132",-23.669695,-46.681861,onibus
1603315,"R. Sant´ana, 275",-23.671558,-46.682667,onibus
1603316,"R. Sant´ana, 524",-23.671831,-46.684647,onibus
1603317,"R. Sant´ana, 725",-23.672037,-46.686377,onibus
1603318,"R. Sto. André, 45",-23.671082,-46.6876,onibus
1603320,"R. Prof. Guilherme Belfort Sabino, 1347",-23.667133,-46.679965,onibus
1603321,"Pça. Camafeu, 0",-23.677533,-46.701487,onibus
1603322,Pça. Camafeu,-23.677827,-46.701616,onibus
1603323,"R. Miguel Yunes, 950",-23.694944,-46.678107,onibus
1603324,"R. Miguel Yunes, 943",-23.695348,-46.677981,onibus
1603325,"R. Das Baiadeiras, 50",-23.675805,-46.695606,onibus
1603326,"Av. Interlagos, 2068",-23.672171,-46.677719,onibus
1603327,"R. Cristalino Rolim De Freitas, 291",-23.665381,-46.706359,onibus
1603328,"R. Miguel Yunes, 541",-23.690417,-46.686828,onibus
1603329,"R. Miguel Yunes, 1030",-23.693292,-46.684405,onibus
1603330,"R. Miguel Yunes, 823",-23.691803,-46.685213,onibus
1603331,"R. Miguel Yunes, 485",-23.687118,-46.689365,onibus
1603332,"R. Galeno De Castro, 589",-23.6675,-46.704581,onibus
1603334,"Av. João Peixoto Viegas, 535",-23.672654,-46.675278,onibus
1603335,"R. Miguel Yunes, 116",-23.685701,-46.690978,onibus
1603336,"R. Miguel Yunes, 85",-23.685229,-46.690966,onibus
1603337,"R. Sg. Geraldo Sant´ana, 155",-23.663436,-46.689752,onibus
1603338,"R. Sg. Geraldo Sant´ana, 1094",-23.664038,-46.680599,onibus
1603339,"R. Sant´ana, 312",-23.671485,-46.682772,onibus
1603340,"R. Moacir Padilha, 83",-23.668453,-46.703664,onibus
1603341,"R. Moacir Padilha, 83",-23.668409,-46.703261,onibus
1603343,"R. Prof. Guilherme Belfort Sabino, 1347",-23.666763,-46.679459,onibus
1603344,"Av. Nsa. Sra. Do Sabará, 4247",-23.689849,-46.678632,onibus
1603345,"R. Marfim, 464",-23.683286,-46.677468,onibus
1703326,"R. José Pereira Bueno, 228",-23.636281,-46.747947,onibus
1703543,"Estr. Do Campo Limpo, 4426",-23.625532,-46.765241,onibus
1703570,"R. Diogo Martins, 327",-23.626767,-46.758335,onibus
1703575,"Estr. Do Campo Limpo, 2062",-23.639169,-46.766729,onibus
1703607,"R. José Máximo Pinheiro De Lima, 164",-23.653742,-46.770541,onibus
1703617,"R. José Ramos Fernandes, 119",-23.649829,-46.776357,onibus
1703655,"Estr. Pirajussara-valo Velho, 658",-23.643873,-46.783698,onibus
1703656,"Av. Augusto Barbosa Tavares, 217",-23.640949,-46.782823,onibus
1707080,"R. Jaracatiá, 628",-23.620725,-46.752883,onibus
1707090,"Av. Anacé, 59",-23.617581,-46.75704,onibus
1707169,"Av. Carlos Lacerda, 970",-23.639985,-46.780003,onibus
1707192,"Av. Augusto Barbosa Tavares, 838",-23.643811,-46.788088,onibus
1707206,"R. Forte Da Barra, 366",-23.640737,-46.761218,onibus
1707223,"Estr. Pirajussara-valo Velho, 36",-23.639793,-46.780495,onibus
1707253,"R. Diogo Martins, 80",-23.626869,-46.760717,onibus
1707258,"R. Mário Linhares, 226",-23.630765,-46.749406,onibus
1707313,"R. José Ramos Fernandes, 449",-23.648865,-46.773602,onibus
1707315,"R. Lira Cearense, 348",-23.643313,-46.756509,onibus
1707316,"R. Cataquena, 38",-23.632867,-46.747177,onibus
1707317,"R. Roque De Mingo, 80",-23.62909,-46.768055,onibus
1707319,"R. Dr. Hugo Lacorte Vitale, 521",-23.627962,-46.757611,onibus
1707320,"R. Dr. Hugo Lacorte Vitale, 521",-23.628109,-46.757656,onibus
1707321,"R. Dr. Hugo Lacorte Vitale, 214",-23.625707,-46.757537,onibus
1707329,"R. Diogo Rodrigues, 1",-23.642152,-46.766026,onibus
1707332,"R. Profa. Nina Stocco, 543",-23.628971,-46.760219,onibus
1707333,"R. Profa. Nina Stocco, 543",-23.628828,-46.760208,onibus
1707335,"Av. Augusto Barbosa Tavares, 821",-23.64378,-46.787919,onibus
1707337,"R. Henrique Coube, 183",-23.637766,-46.765691,onibus
1707339,"R. Maniçoba, 560",-23.623715,-46.752041,onibus
1707340,Av. Anacé (pça. Marília),-23.622448,-46.754607,onibus
1707342,"Estr. Do Campo Limpo, 3677",-23.630372,-46.770519,onibus
1707344,"R. Cataquena, 26",-23.632873,-46.747619,onibus
1707345,"R. Cataquena, 64",-23.632903,-46.747881,onibus
1707346,R. Rogério De Paula Brito,-23.64995,-46.758881,onibus
1707347,"R. Edith Junqueira De Azevedo Marques, 44",-23.64939,-46.763722,onibus
1707348,"R. Prof. Orlando Alvarenga Gaudio, 80",-23.648999,-46.768887,onibus
1707349,"R. Francisco Da Cruz Mellão, 500",-23.65048,-46.77012,onibus
1707350,"R. Francisco Da Cruz Mellão, 146",-23.653221,-46.769493,onibus
1707351,"R. Enga. Amalia Perola Cassab, 415",-23.654729,-46.767859,onibus
1707352,"R. Enga. Amalia Perola Cassab, 50",-23.652482,-46.765347,onibus
1707353,"R. Enga. Amalia Perola Cassab, 20",-23.650885,-46.765873,onibus
1707354,"R. Edith Junqueira De Azevedo Marques, 195",-23.650233,-46.763545,onibus
1707355,"R. Edith Junqueira De Azevedo Marques, 44",-23.648618,-46.763426,onibus
1707356,Terminal Campo Limpo,-23.630478,-46.773613,onibus
1707357,Terminal Campo Limpo,-23.631152,-46.772489,onibus
1707358,Terminal Campo Limpo,-23.631557,-46.772434,onibus
1707359,Terminal Campo Limpo,-23.631689,-46.772182,onibus
1707363,"R. José Pereira Bueno, 319",-23.634652,-46.747792,onibus
1707364,"R. José Pereira Bueno, 376",-23.63457,-46.747729,onibus
1707369,"Av. Prof. Oscar Campiglia, 193",-23.643177,-46.763075,onibus
1707370,"Estr. Do Campo Limpo, 6251",-23.614252,-46.755603,onibus
1707372,Av. Amadeu Da Silva Samelo,-23.630251,-46.76905,onibus
1707374,"R. Nelson Brissac, 6",-23.638738,-46.750207,onibus
1707375,"Av. Prof. Leitão Da Cunha, 2287",-23.642364,-46.750788,onibus
1707381,"Av. Prof. Leitão Da Cunha, 2272",-23.642259,-46.750846,onibus
1707385,"R. Mário Linhares, 870",-23.634196,-46.746912,onibus
1707386,R. Caratuba,-23.623322,-46.748329,onibus
1707387,R. Caratuba,-23.623812,-46.749297,onibus
1707388,"R. Mário Linhares, 95",-23.630218,-46.750656,onibus
1707389,"R. Mário Linhares, 122",-23.6304,-46.750508,onibus
1707390,"R. Guilherme Mainard, 327",-23.625877,-46.761817,onibus
1707391,"R. Guilherme Mainard, 134",-23.624743,-46.763343,onibus
1707392,"R. Diogo Martins, 95",-23.626969,-46.760568,onibus
1707394,Av. Prof. Leitão Da Cunha,-23.636249,-46.752314,onibus
1707395,"Av. Anacé, 92",-23.617394,-46.757269,onibus
1707396,"R. Jorn. José Leite Pinto, 350",-23.630839,-46.765974,onibus
1707397,"R. Jorn. José Leite Pinto, 259",-23.63167,-46.765657,onibus
1707398,"R. Cataquena, 301",-23.631924,-46.749336,onibus
1707399,"Estr. Do Campo Limpo, 6463",-23.61263,-46.754686,onibus
1707400,"Estr. Do Campo Limpo, 5930",-23.615968,-46.756788,onibus
1707401,"R. Mário Neme, 31",-23.628129,-46.767303,onibus
1707403,"R. Jacob Medeiros De Miranda, 130",-23.644062,-46.767518,onibus
1707404,"R. Jacob Medeiros De Miranda, 130",-23.644185,-46.76739,onibus
1707405,"R. Odemis, 139",-23.64319,-46.76802,onibus
1707406,"R. Odemis, 140",-23.643396,-46.768349,onibus
1707407,"R. Gerônimo Salguera, 49",-23.644999,-46.769075,onibus
1707409,"R. Gerônimo Salguera, 49",-23.644747,-46.769101,onibus
1707410,"Estr. Pirajussara-valo Velho, 1600",-23.647604,-46.790822,onibus
1707413,"Av. Amadeu Da Silva Samelo, 423",-23.631364,-46.766694,onibus
1707414,"R. Castanho Mirim, 329",-23.626473,-46.750447,onibus
1707415,"R. Castanho Mirim, 327",-23.626589,-46.750444,onibus
1707416,"R. Do Chico Nunes, 311",-23.627596,-46.748051,onibus
1707417,"R. Do Chico Nunes, 311",-23.627638,-46.747908,onibus
1707426,"R. Maniçoba, 839",-23.623527,-46.749663,onibus
1707427,"R. Maniçoba, 839",-23.623819,-46.749556,onibus
1707429,R. Humberto Scigliano,-23.649909,-46.764982,onibus
1707430,R. Osíris De Camargo,-23.650081,-46.767581,onibus
1707432,"R. Dr. Hugo Lacorte Vitale, 214",-23.625704,-46.757666,onibus
1707435,"R. Cel. Sousa Ferraz, 25",-23.629331,-46.770445,onibus
1707436,"R. Edith Junqueira De Azevedo Marques, 91",-23.650144,-46.763657,onibus
1707437,Av. Amadeu Da Silva Samelo,-23.630533,-46.768438,onibus
1707438,"R. Do Retiro, 361",-23.695959,-46.643126,onibus
1707439,"R. Koto Mitsutani, 248",-23.646433,-46.783816,onibus
1707440,"Av. Carlos Lacerda, 555",-23.636695,-46.778558,onibus
1707441,"R. Canori, 174",-23.628918,-46.755947,onibus
1707442,Ubs Jardim Olinda,-23.629479,-46.754546,onibus
1707444,"R. Guntur, 21",-23.653175,-46.776472,onibus
1707446,Av. Pe. Adolfo Kolping,-23.633596,-46.758059,onibus
1707447,"Estr. Do Campo Limpo, 2053",-23.639309,-46.766838,onibus
1707448,"R. Lira Cearense, 869",-23.640106,-46.756165,onibus
1707449,"R. Mons. Luís Gonzaga De Almeida, 395",-23.6245,-46.765328,onibus
1707451,"Estr. Dos Mirandas, 434",-23.617154,-46.752922,onibus
1707452,"R. Canori, 50",-23.629405,-46.754568,onibus
1707454,"R. Maniçoba, 125",-23.623872,-46.756287,onibus
1707455,"R. Nestor Dos Santos Lima, 145",-23.612447,-46.75376,onibus
1707457,Terminal Campo Limpo,-23.631184,-46.772251,onibus
1707458,"R. Jorge Soares De Macedo, 309",-23.626294,-46.760711,onibus
1707459,"R. Jorge Soares De Macedo, 157",-23.626248,-46.759309,onibus
1707460,"R. Mário Maia, 97",-23.63477,-46.764474,onibus
1707461,"R. Mário Maia, 150",-23.63506,-46.764519,onibus
1707462,"R. Castanho Mirim, 822",-23.626064,-46.748291,onibus
1707464,"R. Júlio Frank, 248",-23.64332,-46.752297,onibus
1707465,"R. Chapada De Minas, 489",-23.625509,-46.747535,onibus
1707466,"R. Celso Ramos, 120",-23.628316,-46.746633,onibus
1707467,"R. Pe. Justino, 547",-23.639904,-46.754349,onibus
1707468,"R. Pe. Justino, 447",-23.638639,-46.756334,onibus
1707469,"Av. Anacé, 222",-23.618709,-46.756731,onibus
1707470,"R. Celso Mesquita Leite, 28",-23.62924,-46.76602,onibus
1707471,"Av. Anacé, 234",-23.618742,-46.756851,onibus
1707472,"Estr. Do Campo Limpo, 5965",-23.615739,-46.756879,onibus
1707473,"R. Maniçoba, 126",-23.623975,-46.756227,onibus
1809348,"R. Uniflor, 124",-23.501584,-46.501302,onibus
1809391,"R. Odete, 96",-23.511923,-46.528587,onibus
1809514,"Av. Cangaiba, 502",-23.515349,-46.545884,onibus
1809522,"Av. Cangaiba, 1288",-23.510683,-46.541452,onibus
1809526,"Av. Cangaiba, 1784",-23.50869,-46.53853,onibus
1809544,"R. Dr. Assis Ribeiro, 876",-23.507974,-46.542624,onibus
1809548,"R. Dr. Assis Ribeiro, 1680",-23.503674,-46.536808,onibus
1809554,"Av. Gov. Carvalho Pinto, 1171",-23.513835,-46.538597,onibus
1812092,"R. Olho D'água Do Borges, 90",-23.495615,-46.50791,onibus
1812093,"R. Olho D'água Do Borges, 90",-23.495748,-46.507655,onibus
1812111,"R. Olho D'água Do Borges, 842",-23.498702,-46.50225,onibus
1812114,"R. Olho D'água Do Borges, 888",-23.49938,-46.501578,onibus
1814565,"R. Entre Rios, 190",-23.510012,-46.5175,onibus
1814568,"R. Entre Rios, 450",-23.508536,-46.518108,onibus
1814571,"R. Entre Rios, 680",-23.505925,-46.518403,onibus
1814575,"R. Jequeri, 298",-23.49924,-46.499819,onibus
1814577,"R. Jequeri, 94",-23.500723,-46.500987,onibus
1814578,"R. Paco Do Lumiar, 381",-23.495115,-46.500088,onibus
1814579,"R. Erval Seco, 319",-23.497271,-46.499822,onibus
1814586,"Av. Dr. Salomão De Vasconcelos, 407",-23.503248,-46.524655,onibus
1814600,"R. S. Florêncio, 1464",-23.508959,-46.530594,onibus
1814602,"Av. Danfer, 120",-23.504434,-46.505683,onibus
1814612,"Av. Vinte E Quatro De Fevereiro, 248",-23.508063,-46.524879,onibus
1814647,"R. Dr. Assis Ribeiro, 3300",-23.499569,-46.522393,onibus
1814649,"R. Uniflor, 17",-23.502695,-46.501175,onibus
1814653,"R. Mons. Meireles, 700",-23.503437,-46.496483,onibus
1814654,"Av. Dr. Salomão De Vasconcelos, 701",-23.500558,-46.524489,onibus
1814656,"Av. Dr. Salomão De Vasconcelos, 700",-23.50044,-46.524377,onibus
1814657,"Av. Cangaiba, 1129",-23.511258,-46.543778,onibus
1814658,"R. Jacina, 406",-23.503261,-46.500302,onibus
1814659,"R. Pastoril De Itapetinga, 642",-23.502962,-46.502995,onibus
1814661,Pça. Xavier Pinto Lima,-23.499784,-46.52395,onibus
1814664,"R. Jequeri, 296",-23.499048,-46.499752,onibus
1814665,"R. Jardim Das Margaridas, 272",-23.508112,-46.513053,onibus
1814666,"R. Jardim Das Margaridas, 607",-23.505082,-46.513445,onibus
1814667,"R. Dr. Assis Ribeiro, 1931",-23.502288,-46.534709,onibus
1814670,"R. Cel. Meireles, 1175",-23.513151,-46.536647,onibus
1814671,"R. Mons. Meireles, 222",-23.503526,-46.498901,onibus
1814672,"R. Demétrio Levedis, 19",-23.501731,-46.510781,onibus
1814674,"R. Carlos Bigatti, 37",-23.503241,-46.510335,onibus
1814675,"R. Guirá - Acangatara, 30",-23.498902,-46.528802,onibus
1814676,"R. Guirá - Acangatara, 160",-23.498657,-46.527555,onibus
1814678,"R. Novo Oriente Do Piauí, 777",-23.493515,-46.502024,onibus
1814679,"R. Juriti-piranga, 17",-23.499317,-46.529739,onibus
1814681,"R. Piperales, 33",-23.500802,-46.509625,onibus
1814682,"R. Aramandaia, 21",-23.49789,-46.530218,onibus
1814684,"R. Guirá - Acangatara, 75",-23.498797,-46.528589,onibus
1814687,"R. Antônia Teresa De Paula Matias, 499",-23.500192,-46.508813,onibus
1814688,Rod. Parque,-23.495707,-46.520433,onibus
1814689,Rod. Parque,-23.495163,-46.519282,onibus
1814690,Rod. Parque,-23.482829,-46.50386,onibus
1814691,"R. Olho D'água Do Borges, 184",-23.496778,-46.506756,onibus
1814692,"R. Olho D'água Do Borges, 200",-23.496413,-46.50697,onibus
1814693,"R. Mateus Lourenço De Carvalho, 118",-23.511047,-46.514611,onibus
1814694,"R. Júlio Marcelino De Farias, 82",-23.510093,-46.534202,onibus
1814696,"R. Júlio Marcelino De Farias, 334",-23.509048,-46.533347,onibus
1814697,"R. Júlio Marcelino De Farias, 341",-23.508975,-46.533463,onibus
1814699,"R. Dr. Assis Ribeiro, 3490",-23.498752,-46.520516,onibus
1814701,"R. Londres, 367",-23.511372,-46.536326,onibus
1814702,"R. Londres, 216",-23.512152,-46.53671,onibus
1814704,"R. Roiz Barros, 256",-23.502479,-46.52718,onibus
1814705,R. Novo Oriente Do Piauí,-23.493036,-46.499188,onibus
1814706,"R. S. José Do Belmonte, 411",-23.494609,-46.501556,onibus
1814707,"R. S. José Do Belmonte, 411",-23.494547,-46.501473,onibus
1814710,"R. Dr. Assis Ribeiro, 2160",-23.501205,-46.532837,onibus
1814711,Eng. Goulart,-23.498099,-46.51992,onibus
1814712,Guarulhos Cecap,-23.44808,-46.493539,onibus
1814713,Aeroporto Guarulhos,-23.433667,-46.493732,onibus
1814714,"R. Da Calenda, 45",-23.493017,-46.498713,onibus
1814715,"Av. Maracanã-guaçu, 218",-23.497401,-46.529591,onibus
1814716,"R. Gazali, 31",-23.497801,-46.531443,onibus
1814717,"Av. Dr. Salomão De Vasconcelos, 494",-23.502273,-46.524618,onibus
1814718,"R. Dr. Augusto Simões Lopes, 331",-23.49857,-46.515096,onibus
1814719,"R. Dr. Augusto Simões Lopes, 364",-23.498542,-46.514557,onibus
1814720,"Av. Cangaiba, 3722",-23.505358,-46.521135,onibus
1814722,"R. Crubixá, 74",-23.513115,-46.521519,onibus
1814723,"R. Faustino Paganini, 196",-23.507966,-46.532439,onibus
1814725,Ct. Joaquim Grava - C/B,-23.489262,-46.508332,onibus
1814726,Ct. Joaquim Grava - B/C,-23.48925,-46.50842,onibus
1814727,Ct. Portuguesa - B/C,-23.493525,-46.514782,onibus
1814728,"R. Bujaru, 116",-23.496386,-46.503595,onibus
1814729,Pça. Félix,-23.498214,-46.502455,onibus
1814730,"R. Guirá - Acangatara, 149",-23.498553,-46.527698,onibus
1814732,"R. Guirá - Acangatara, 298",-23.49906,-46.526863,onibus
1814733,"R. Guirá - Acangatara, 298",-23.499013,-46.526769,onibus
1814734,"R. Arlindo Bettio, 14",-23.483543,-46.497168,onibus
1814735,"R. Arlindo Bettio, 14",-23.483543,-46.497048,onibus
1814736,"R. Jardim Das Margaridas, 4",-23.51032,-46.512712,onibus
1814737,"R. Jardim Das Margaridas, 39",-23.51016,-46.512896,onibus
1814738,"R. Jardim Das Margaridas, 277",-23.508013,-46.513177,onibus
1814739,"R. Jardim Das Margaridas, 608",-23.505047,-46.513375,onibus
1814741,"R. Miguel Garcia, 58",-23.50546,-46.529379,onibus
1814742,"Av. Tarumã, 112",-23.508602,-46.527023,onibus
1814743,"Av. Tarumã, 350",-23.510495,-46.527123,onibus
1814744,"R. Londres, 612",-23.509674,-46.534945,onibus
1814745,"R. Francisco Damante, 46",-23.509434,-46.534533,onibus
1814746,"R. Dr. Assis Ribeiro, 2352",-23.500357,-46.53108,onibus
1900836,"Av. Ellis Maas, 123",-23.66159,-46.7688,onibus
1900851,"R. Paulino Vital De Morais, 563",-23.663132,-46.76271,onibus
1900852,"R. Dr. Benedito Matarazzo, 251",-23.663782,-46.763467,onibus
1900858,"R. Gaspar Dos Reis, 1",-23.669078,-46.765093,onibus
1900868,"R. Atos Tomás Ferraciu, 77",-23.670137,-46.772313,onibus
1900875,"R. Dos Mutirantes, 208",-23.67014,-46.778519,onibus
1900963,"R. Túlio Mugnaini, 66",-23.658986,-46.7672,onibus
1901983,"R. Luar Do Sertão, 1960",-23.689789,-46.799368,onibus
1903415,"R. Garcia De Toledo, 43",-23.681587,-46.784947,onibus
1903425,"R. Da Costa Nova Do Prado, 452",-23.672391,-46.782452,onibus
1903430,"Estr. De Itapecerica, 5859",-23.665935,-46.78308,onibus
1903464,"Estr. De Itapecerica, 11500",-23.685302,-46.800418,onibus
1903468,"Estr. De Itapecerica, 8742",-23.680535,-46.79628,onibus
1903488,"R. Said Kalaf, 874",-23.670421,-46.792359,onibus
1903490,"R. Carlos Blum, 42",-23.668726,-46.793902,onibus
1903491,"R. Raul De Azevedo, 6",-23.667203,-46.791955,onibus
1903507,"Av. D. Rodrigo Sanches, 573",-23.661333,-46.78487,onibus
1903697,"R. Luar Do Sertão, 1123",-23.694157,-46.795065,onibus
1903698,"R. Luar Do Sertão, 866",-23.692161,-46.795374,onibus
1903702,"R. Luar Do Sertão, 1706",-23.69167,-46.798149,onibus
1903703,"R. Luar Do Sertão, 1931",-23.689935,-46.799164,onibus
1903710,"R. Luar Do Sertão, 264",-23.688231,-46.792676,onibus
1903722,"R. Domingos Peixoto Da Silva, 245",-23.662227,-46.776624,onibus
1903729,"R. Alfredo Lorenz, 630",-23.658381,-46.782326,onibus
1903735,"R. Feitiço Da Vila, 51",-23.685601,-46.800028,onibus
1903747,"Estr. De Itapecerica, 4730",-23.659665,-46.773938,onibus
1903755,"R. Integrada, 25",-23.666794,-46.774313,onibus
1903757,"R. Integrada, 184",-23.665653,-46.776158,onibus
1903764,"R. Antônio Forlenza, 370",-23.67337,-46.793551,onibus
1903768,"R. Integrada, 240",-23.665336,-46.776994,onibus
1903786,"R. Luar Do Sertão, 2192",-23.687631,-46.800897,onibus
1903787,"R. Luar Do Sertão, 622",-23.690223,-46.795393,onibus
1903844,"R. Ricardo Nascimento, 93",-23.675465,-46.772756,onibus
1903849,"R. Mercedes Tesser Pochini, 140",-23.675996,-46.770585,onibus
1903852,"Estr. De Itapecerica, 2945",-23.653665,-46.759388,onibus
1903853,"Estr. De Itapecerica, 2976",-23.653652,-46.75976,onibus
1903881,"Av. Ellis Maas, 679",-23.666196,-46.771211,onibus
1903883,"Av. Com. Sant'anna, 524",-23.671335,-46.773048,onibus
1903886,"R. Povoa De Varzim, 387",-23.651981,-46.789433,onibus
1903888,"R. Abílio Cesar, 1014",-23.686511,-46.780254,onibus
1903890,"Av. Prof. Dr. Telêmaco H. M. Van Langendonck, 20",-23.660914,-46.769447,onibus
1903891,Av. Prof. Dr. Telêmaco H. M. Van Langendonck,-23.661057,-46.769525,onibus
1903893,Pça. Dr. Teodorico Almeida Bessa,-23.673657,-46.791078,onibus
1903894,"R. Mercedes Tesser Pochini, 51",-23.673899,-46.768041,onibus
1903905,"R. Nogueira Do Cravo, 18",-23.691825,-46.792339,onibus
1903906,"R. Nogueira Do Cravo, 15",-23.692261,-46.792531,onibus
1903907,"R. Ilha Maiorca, 1059",-23.690682,-46.792302,onibus
1903908,"R. Ilha Maiorca, 1059",-23.690598,-46.792403,onibus
1903909,"R. Ilha Maiorca, 90",-23.690477,-46.793643,onibus
1903910,"R. Ilha Maiorca, 90",-23.69056,-46.793441,onibus
1903911,"R. Cortegaça, 420",-23.688745,-46.791814,onibus
1903912,"R. Cortegaça, 307",-23.688847,-46.792096,onibus
1903914,"R. Feitiço Da Vila, 765",-23.686909,-46.799292,onibus
1903915,"R. Da Safra, 180",-23.671725,-46.786592,onibus
1903916,"R. Sebastião Advíncola Da Cunha, 115",-23.652128,-46.784587,onibus
1903919,"R. Abílio Cesar, 516",-23.68307,-46.77841,onibus
1903920,"R. Abílio Cesar, 1042",-23.683019,-46.778232,onibus
1903922,"R. Abílio Cesar, 768",-23.684527,-46.779094,onibus
1903924,Parada Das Belezas C/B,-23.642497,-46.738745,onibus
1903925,"R. Gingadinho, 18",-23.678361,-46.793778,onibus
1903926,"R. Gingadinho, 34",-23.680401,-46.795513,onibus
1903927,"R. Gingadinho, 610",-23.680445,-46.793767,onibus
1903928,R. Tajal,-23.679785,-46.792496,onibus
1903929,"R. Aviadora Anésia Pinheiro Machado, 197",-23.679066,-46.791797,onibus
1903930,"Av. D. Rodrigo Sanches, 234",-23.661632,-46.781757,onibus
1903931,"R. Simão Alves De Almeida, 299",-23.672649,-46.768408,onibus
1903932,"R. Simão Alves De Almeida, 294",-23.672549,-46.768223,onibus
1903935,"R. Mercedes Tesser Pochini, 97",-23.675926,-46.770125,onibus
1903936,"R. Mercedes Tesser Pochini, 14",-23.673461,-46.767914,onibus
1903937,"R. Benedito Calixto De Jesus, 79",-23.671313,-46.765623,onibus
1903938,"R. Benedito Calixto De Jesus, 153",-23.671499,-46.76549,onibus
1903939,"R. Pietro Longhi, 230",-23.672096,-46.764401,onibus
1903940,"Av. Wilhelm Friedrich Ladwig, 817",-23.674464,-46.766238,onibus
1903941,R. Osny Duarte Pereira,-23.681168,-46.790842,onibus
1903942,R. Aviadora Anésia Pinheiro Machado,-23.680107,-46.791414,onibus
1903943,"R. Valter Airosa Flaquer, 279",-23.676025,-46.792002,onibus
1903944,"R. Valter Airosa Flaquer, 279",-23.676054,-46.791691,onibus
1903946,Av. Cantos Do Amanhecer,-23.649847,-46.785352,onibus
1903947,"Av. Sabin, 151",-23.657412,-46.768568,onibus
1903948,"Av. Sabin, 176",-23.657255,-46.768671,onibus
1903949,"Av. Sabin, 415",-23.655525,-46.769515,onibus
1903950,"Av. Sabin, 348",-23.655784,-46.769368,onibus
1903951,"Estr. Pirajussara-valo Velho, 609",-23.647834,-46.788027,onibus
1903952,"R. Miguel Lopes, 119",-23.669157,-46.765285,onibus
1903953,"R. Profa. Eunice Bechara De Oliveira, 1030",-23.667121,-46.774085,onibus
1903954,"R. Profa. Eunice Bechara De Oliveira, 1030",-23.667136,-46.774257,onibus
1903955,"R. Abílio Cesar, 1246",-23.688296,-46.781074,onibus
1903956,"Av. Moenda Velha, 39",-23.683696,-46.790708,onibus
1903957,"R. Francisco De Almeida, 200",-23.666451,-46.76217,onibus
1903958,"R. Antônio Ribeiro Pina, 225",-23.666272,-46.762112,onibus
1903959,"R. Agnus Dei, 11",-23.681321,-46.783163,onibus
1903960,"R. Povoa De Varzim, 213",-23.650461,-46.791449,onibus
1903961,"R. Domingos Peixoto Da Silva, 508",-23.664698,-46.777072,onibus
1903962,"R. Luar Do Sertão, 2324",-23.687027,-46.801203,onibus
1903963,"Av. Alto De Vila Pirajussara, 113",-23.651705,-46.779028,onibus
1903964,"R. Atos Tomás Ferraciu, 60",-23.670253,-46.772286,onibus
1903967,"Av. Com. Sant'anna, 1579",-23.679184,-46.770573,onibus
1903968,"R. Povoa De Varzim, 93",-23.650344,-46.79139,onibus
1903969,"R. João Robalo, 882",-23.684401,-46.781804,onibus
1903970,"R. João Robalo, 422",-23.681693,-46.781222,onibus
1903971,"Av. Com. Sant'anna, 166",-23.668558,-46.773174,onibus
1903972,"R. Agostinho De Paiva, 336",-23.651934,-46.791064,onibus
1903973,"R. Falkemberg, 350",-23.675131,-46.784225,onibus
1903974,"Av. Agostinho Rubin, 301",-23.658223,-46.76036,onibus
1903975,"Av. Cantos Do Amanhecer, 283",-23.649212,-46.786707,onibus
1903976,"R. João Robalo, 869",-23.685174,-46.782856,onibus
1903979,"R. João Da Cruz E Sousa, 503",-23.657894,-46.789816,onibus
1903980,"R. João Da Cruz E Sousa, 437",-23.658169,-46.789567,onibus
1903981,"R. Manoel Porto, 1659",-23.658082,-46.78975,onibus
1903982,Parada Capão Redondo III,-23.658699,-46.765702,onibus
1903983,"R. Anália Dolácio Albino, 310",-23.661757,-46.762216,onibus
1903984,"R. Anália Dolácio Albino, 310",-23.661919,-46.762331,onibus
1903985,"Terminal Capelinha - Plat. 1, 1",-23.653826,-46.762466,onibus
1903986,"Terminal Capelinha - Plat. 3, 1",-23.654512,-46.762268,onibus
1903987,"Terminal Capelinha - Plat. 5, 1",-23.654555,-46.763113,onibus
1903988,"Terminal Capelinha - Plat. 5, 1",-23.654756,-46.762849,onibus
1903989,"Terminal Capelinha - Plat. 5, 1",-23.654977,-46.762546,onibus
1903990,"Terminal Capelinha - Desemb. Plat 6, 1",-23.655161,-46.762576,onibus
1903991,"Terminal Capelinha - Desemb. Plat 6, 1",-23.655102,-46.76264,onibus
1903992,"Terminal Capelinha - Desemb. Plat 6, 1",-23.655036,-46.76272,onibus
1903993,"Terminal Capelinha - Desemb. Plat 6, 1",-23.654974,-46.762815,onibus
1903994,"Terminal Capelinha - Desemb. Plat 6, 1",-23.6549,-46.762903,onibus
1903995,"Terminal Capelinha - Desemb. Plat 6, 1",-23.65481,-46.763015,onibus
1903996,"Terminal Capelinha - Desemb. Plat 6, 1",-23.654732,-46.763113,onibus
1903997,"Terminal Capelinha - Desemb. Plat 6, 1",-23.654598,-46.76329,onibus
1903998,"Av. Antônio José Bentes, 627",-23.665194,-46.789234,onibus
1903999,"R. Henrique Sam Mindlin, 1857",-23.680056,-46.782305,onibus
1904000,"R. Atos Tomás Ferraciu, 330",-23.671007,-46.769899,onibus
1904001,"R. Nicola Aracri, 904",-23.67309,-46.793635,onibus
1904002,"Av. D. Rodrigo Sanches, 1283",-23.661223,-46.791291,onibus
1904003,"R. Feitiço Da Vila, 411",-23.686709,-46.795261,onibus
1904004,"Av. Felipe Carrillo Puerto, 741",-23.6671,-46.790212,onibus
1904005,"R. Aviadora Anésia Pinheiro Machado, 45",-23.676805,-46.792651,onibus
1904006,"R. Garcia De Toledo, 931",-23.684464,-46.787568,onibus
1904008,"R. Sebastião Advíncola Da Cunha, 438",-23.654413,-46.784605,onibus
1904009,"Av. Alto De Vila Pirajussara, 601",-23.650504,-46.783576,onibus
1904010,"R. Atos Tomás Ferraciu, 320",-23.67077,-46.770257,onibus
2009049,"R. Taubaté, 336",-23.554339,-46.531699,onibus
2009067,"R. Lutécia, 1227",-23.554367,-46.543293,onibus
2009087,"Av. Cons. Carrão, 0",-23.548645,-46.537346,onibus
2009181,"Av. Aricanduva, 1341",-23.540899,-46.538513,onibus
2009230,"Av. Aricanduva, 8623",-23.586884,-46.482419,onibus
2009247,"Av. Guilherme Giorge, 1130",-23.556209,-46.545097,onibus
2009254,"R. Atucuri, 554",-23.549449,-46.547596,onibus
2009259,"R. Lutécia, 1921",-23.560448,-46.540881,onibus
2009261,"R. Francisca De Paula, 275",-23.556758,-46.529507,onibus
2009263,"R. Lutécia, 1730",-23.558264,-46.541767,onibus
2009267,"R. Nova Jerusalém, 611",-23.547744,-46.549447,onibus
2009268,"R. Atucuri, 698",-23.551064,-46.548414,onibus
2009270,"Av. Dezenove De Janeiro, 783",-23.557541,-46.523656,onibus
2009271,"Av. Dezenove De Janeiro, 824",-23.558292,-46.522261,onibus
2009272,"R. Francisca De Paula, 288",-23.557116,-46.529786,onibus
2009273,"Av. Dezenove De Janeiro, 322",-23.55548,-46.52616,onibus
2009274,"R. Taubaté, 29",-23.553175,-46.528242,onibus
2009275,"R. Prof. Pedreira De Freitas, 1400",-23.549361,-46.548912,onibus
2009276,"R. Eng. Pegado, 521",-23.548347,-46.540674,onibus
2009277,"R. Antônio Peres Mulla, 373",-23.562797,-46.532348,onibus
2009278,Terminal Vila Carrão - Plataforma A,-23.558672,-46.522761,onibus
2009279,Terminal Vila Carrão - Plataforma A,-23.558486,-46.523023,onibus
2009280,N404-11 Parada Exclusiva,-23.558396,-46.523234,onibus
2009281,"R. Francisca De Paula, 160",-23.554852,-46.528386,onibus
2009282,"Pça. Br. Homem De Melo, 5",-23.557412,-46.541894,onibus
2009283,"R. Antônio De Barros, 1500",-23.543294,-46.556499,onibus
2009284,"R. Lutécia, 1025",-23.552754,-46.543096,onibus
2009285,"R. Luzia Da Conceição Moraes, 450",-23.552913,-46.543492,onibus
2110547,"R. Águas Virtuosas, 374",-23.501035,-46.654697,onibus
2110601,"R. Ságuairu, 581",-23.510958,-46.655142,onibus
2110931,"R. Domingos Torres, 180",-23.505974,-46.668253,onibus
2113027,"R. Armando Coelho Silva, 599",-23.493491,-46.656277,onibus
2113086,"R. Antônio Vera Cruz, 281",-23.494353,-46.663512,onibus
2113089,"R. Zilda, 786",-23.492952,-46.662005,onibus
2113099,"R. Epaminondas Melo Do Amaral, 874",-23.487373,-46.659289,onibus
2113114,"R. Zilda, 829",-23.492228,-46.662265,onibus
2113194,"Av. Eng. Caetano Alvares, 1908",-23.498702,-46.663748,onibus
2113352,"Av. Lasar Segall, 87",-23.482042,-46.656266,onibus
2113360,"R. Brazeliza Alves De Carvalho, 323",-23.512669,-46.650691,onibus
2113375,"R. Prof. Dario Ribeiro, 396",-23.493505,-46.674301,onibus
2113376,"Av. Direitos Humanos, 65",-23.488254,-46.653627,onibus
2113378,"Av. Eng. Caetano Alvares, 510",-23.509235,-46.67042,onibus
2113381,"R. Antônio Nascimento Moura, 291",-23.508762,-46.653648,onibus
2113382,"R. Zilda, 250",-23.49728,-46.660913,onibus
2113384,"R. Águas Virtuosas, 1214",-23.495696,-46.660717,onibus
2113386,"R. Relíquia, 118",-23.511676,-46.662015,onibus
2113389,"R. Zilda, 1242",-23.489124,-46.663621,onibus
2113390,"R. Zilda, 1193",-23.489523,-46.663559,onibus
2113391,"R. Relíquia, 203",-23.511036,-46.661976,onibus
2113392,"R. Jaboatão, 192",-23.508185,-46.655953,onibus
2113393,"Av. Ordem E Progresso, 1135",-23.510163,-46.666172,onibus
2113394,"Av. Lasar Segall, 268",-23.482841,-46.657818,onibus
2113395,"R. Maria Curupaiti, 800",-23.500391,-46.64373,onibus
2113397,"R. Zilda, 421",-23.495937,-46.661281,onibus
2113398,"R. Zilda, 1378",-23.488048,-46.664426,onibus
2113399,"Av. Casa Verde, 2901",-23.506762,-46.666979,onibus
2113400,"Av. Baruel, 451",-23.503837,-46.658655,onibus
2113402,"R. Samaritá, 1000",-23.511185,-46.668872,onibus
2113403,"R. Samaritá, 1000",-23.510827,-46.668915,onibus
2113404,"Av. Bráz Leme, 1631",-23.506603,-46.643596,onibus
2113405,"Av. Bráz Leme, 1631",-23.506045,-46.643314,onibus
2113406,"Av. Imirim, 2863",-23.48231,-46.654947,onibus
2113408,"R. Quirinópolis, 134",-23.482077,-46.65304,onibus
2113409,"R. Bernardino Fanganiello, 516",-23.512781,-46.660992,onibus
2113410,"Av. Casa Verde, 2800",-23.506447,-46.666005,onibus
2113411,"Av. Casa Verde, 1122",-23.502635,-46.652391,onibus
2113414,"R. Bernardino Fanganiello, 435",-23.5131,-46.659954,onibus
2113416,Terminal Casa Verde,-23.496071,-46.662431,onibus
2113417,Terminal Casa Verde,-23.496312,-46.662501,onibus
2113418,"Av. Eng. Caetano Alvares, 836",-23.506434,-46.669406,onibus
2113419,"R. Cesar Penna Ramos, 424",-23.490165,-46.664925,onibus
2113423,"Av. Casa Verde, 212",-23.499655,-46.645079,onibus
2113424,"R. Prof. Dario Ribeiro, 1386",-23.491571,-46.664846,onibus
2201655,"Av. Ângelo Cristianini, 1570",-23.69188,-46.644188,onibus
2201656,"Av. Ângelo Cristianini, 1334",-23.689608,-46.643561,onibus
2202289,"R. Giuseppe Boschi, 49",-23.684619,-46.645156,onibus
2202292,"R. Giuseppe Boschi, 94",-23.684453,-46.645229,onibus
2202294,"R. Pst. Rubens Lopes, 400",-23.67579,-46.65072,onibus
2202299,"R. José Eid Maluf, 135",-23.673366,-46.656284,onibus
2202300,"R. José Eid Maluf, 277",-23.673312,-46.656483,onibus
2202315,"Av. Pedro De Avos, 193",-23.683442,-46.642864,onibus
2202335,"Av. Pedro De Avos, 431",-23.68384,-46.640825,onibus
2202336,"Av. Pedro De Avos, 462",-23.684066,-46.641029,onibus
2202338,"Av. Garcia De Ávila, 671",-23.681252,-46.635028,onibus
2202353,"R. Sebastião Afonso, 723",-23.679511,-46.636163,onibus
2202361,"Av. Cupece, 5919",-23.683409,-46.634357,onibus
2202372,"Av. Fulfaro, 501",-23.674636,-46.632988,onibus
2202373,"Av. Fulfaro, 912",-23.673655,-46.631566,onibus
2202374,"Av. Fulfaro, 860",-23.673735,-46.631998,onibus
2202394,"R. Antônio De Pinho De Azevedo, 640",-23.666718,-46.651945,onibus
2202415,"R. Álvares Fagundes, 621",-23.669411,-46.645489,onibus
2202478,"R. Antônio Gil, 1021",-23.659621,-46.669918,onibus
2202507,"R. Icaturama, 131",-23.670716,-46.657545,onibus
2202509,"R. José Eid Maluf, 114",-23.672286,-46.657299,onibus
2202510,"Av. Celso Dos Santos, 1330",-23.672538,-46.664567,onibus
2202536,"R. Vitório Gui, 8",-23.679222,-46.663681,onibus
2202538,"R. Samuel Arnold, 763",-23.684039,-46.668035,onibus
2202539,"R. Samuel Arnold, 764",-23.684216,-46.668091,onibus
2202544,"R. Samuel Arnold, 888",-23.685303,-46.66839,onibus
2202545,"R. Samuel Arnold, 901",-23.685759,-46.668282,onibus
2202546,"R. Samuel Arnold, 1055",-23.68656,-46.668422,onibus
2202547,"R. Samuel Arnold, 1100",-23.686828,-46.66864,onibus
2202548,"R. Bruno Taut, 35",-23.686886,-46.666805,onibus
2202549,"R. Bruno Taut, 10",-23.687067,-46.667031,onibus
2202610,"R. Do Mar, 90",-23.659894,-46.67585,onibus
2202990,"Av. Cupece, 4174",-23.671903,-46.645646,onibus
2202997,"Av. Yervant Kissajikian, 2332",-23.677289,-46.658696,onibus
2203020,"R. Sg. Geraldo Sant´ana, 154",-23.663595,-46.689787,onibus
2203047,"R. Sg. Geraldo Sant´ana, 435",-23.663373,-46.687098,onibus
2203048,"R. Maria Clotilde Martins Rocha, 552",-23.685283,-46.654015,onibus
2203051,"Av. Celso Dos Santos, 1303",-23.672323,-46.664487,onibus
2203065,"R. Glycerio Almeida Maciel, 356",-23.686984,-46.657766,onibus
2203072,"Av. Ângelo Cristianini, 1531",-23.691298,-46.643907,onibus
2203086,"R. Bento José De Moraes, 65",-23.688185,-46.663436,onibus
2203087,"Av. Augusto De Castro, 589",-23.690127,-46.66106,onibus
2203093,"Av. Sto. Afonso, 67",-23.676062,-46.642605,onibus
2203101,"R. Guaicuri, 425",-23.693162,-46.643064,onibus
2203105,"R. Maria Clotilde Martins Rocha, 577",-23.685336,-46.654327,onibus
2203113,"R. Glycerio Almeida Maciel, 79",-23.688088,-46.659947,onibus
2203120,"Av. Marari, 466",-23.665493,-46.664516,onibus
2203122,"R. Dr. Djalma Pinheiro Franco, 1028",-23.655346,-46.668771,onibus
2203123,R. Frei Lourenço De Alcântara,-23.690368,-46.649575,onibus
2203125,"Av. Cupece, 2128",-23.66152,-46.663319,onibus
2203126,"R. David Eid, 1057",-23.678628,-46.670735,onibus
2203128,"R. Vicente Leite, 237",-23.664267,-46.656871,onibus
2203131,"Av. Rodrigues Montemor, 946",-23.666595,-46.652437,onibus
2203134,"R. Prof. Freitas Julião, 21",-23.688736,-46.638047,onibus
2203135,"R. Rainha Das Missões, 421",-23.688568,-46.64858,onibus
2203136,"R. Oscar De Barros, 579",-23.686279,-46.658898,onibus
2203137,"Av. Gaspar De Brito, 333",-23.672738,-46.66234,onibus
2203138,"Av. Gaspar De Brito, 343",-23.672755,-46.662194,onibus
2203139,Estação De Transf. Jd. Miriam,-23.681905,-46.637072,onibus
2203140,Estação De Transf. Jd. Miriam,-23.681481,-46.637876,onibus
2203141,Parada Bras De Abreu,-23.678752,-46.640588,onibus
2203142,Parada Bras De Abreu,-23.679201,-46.640327,onibus
2203143,Parada Santo Afonso,-23.675451,-46.642265,onibus
2203144,Parada Santo Afonso,-23.675533,-46.642367,onibus
2203145,Parada Rio Grande Do Sul,-23.672347,-46.644811,onibus
2203146,Parada Rio Grande Do Sul,-23.672528,-46.644736,onibus
2203147,Parada Públio Pimentel,-23.66956,-46.648803,onibus
2203148,Parada Públio Pimentel,-23.669324,-46.648999,onibus
2203151,Parada Paulo Albernaz,-23.666489,-46.655738,onibus
2203152,Parada Paulo Albernaz,-23.665948,-46.656712,onibus
2203153,Parada Rubens Facchini,-23.664132,-46.660614,onibus
2203154,Parada Rubens Facchini,-23.663975,-46.66052,onibus
2203155,Parada Parque Do Nabuco,-23.660697,-46.663328,onibus
2203156,Parada Parque Do Nabuco,-23.661451,-46.662592,onibus
2203157,Parada Vila Canaã,-23.656791,-46.665191,onibus
2203158,"Av. Celso Dos Santos, 1225",-23.671585,-46.664297,onibus
2203163,"R. Sto. Alberico Crescitelli, 216",-23.688925,-46.648446,onibus
2203164,"Pça. Tito Pacheco, 172",-23.68244,-46.642349,onibus
2203166,"R. Zike Tuma, 1492",-23.683667,-46.67003,onibus
2203167,"R. Zike Tuma, 1496",-23.683736,-46.670121,onibus
2203168,"Av. Yervant Kissajikian, 1816",-23.674406,-46.662919,onibus
2203169,"R. Oldegard Olsen Sapucaia, 250",-23.688193,-46.636766,onibus
2203170,"R. Tomazina, 68",-23.660456,-46.663666,onibus
2203171,"R. Juan De La Cruz, 433",-23.662862,-46.661432,onibus
2203172,"R. Ventura Garcia Calderón, 204",-23.676471,-46.635106,onibus
2203173,"R. Ventura Garcia Calderón, 237",-23.676691,-46.635325,onibus
2203174,"Av. Ângelo Cristianini, 467",-23.685172,-46.637628,onibus
2203175,"R. Zike Tuma, 1203",-23.684775,-46.670049,onibus
2203176,"R. Zike Tuma, 1221",-23.685239,-46.670306,onibus
2203177,"R. Delfino Facchina, 625",-23.676371,-46.64952,onibus
2203178,"R. Delfino Facchina, 650",-23.67648,-46.649746,onibus
2203179,"R. Delfino Facchina, 893",-23.678171,-46.651148,onibus
2203180,"R. Delfino Facchina, 906",-23.678078,-46.65096,onibus
2203181,"R. Delfino Facchina, 1060",-23.679879,-46.65259,onibus
2203182,"R. Delfino Facchina, 1125",-23.68008,-46.652688,onibus
2203183,"R. Catarina Gabrieli, 540",-23.675665,-46.650482,onibus
2203184,"Av. Cupece, 4808",-23.675872,-46.64226,onibus
2203185,"Av. Yervant Kissajikian, 3139",-23.681833,-46.652663,onibus
2203186,"R. Dr. Djalma Pinheiro Franco, 909",-23.654736,-46.667513,onibus
2203187,"R. Zike Tuma, 877",-23.687643,-46.670671,onibus
2203188,"R. Venceslau De Morais, 64",-23.664789,-46.661227,onibus
2203189,"R. Jorge Martinho Prado, 138",-23.667585,-46.66773,onibus
2203190,"R. Jorge Martinho Prado, 222",-23.667719,-46.66754,onibus
2203191,"Al. Dr. Sílvio De Campos, 33",-23.678366,-46.638421,onibus
2203192,"R. Duarte De Brito, 350",-23.676013,-46.633829,onibus
2203193,"R. Duarte De Brito, 297",-23.676273,-46.634272,onibus
2203194,"R. Glycerio Almeida Maciel, 499",-23.686256,-46.65647,onibus
2203195,"Al. Dr. Sílvio De Campos, 60",-23.679124,-46.637982,onibus
2203196,"R. Bento José De Moraes, 42",-23.687994,-46.663506,onibus
2203197,"Av. Garcia De Ávila, 81",-23.680668,-46.64042,onibus
2203198,"Av. Garcia De Ávila, 150",-23.681235,-46.640096,onibus
2203199,"R. Ângelo Batista, 35",-23.671703,-46.660982,onibus
2203200,"Av. Celso Dos Santos, 860",-23.670317,-46.666501,onibus
2203201,"R. Salvador Rodrigues Negrão, 64",-23.670034,-46.66633,onibus
2203202,"R. Salvador Rodrigues Negrão, 240",-23.670315,-46.66471,onibus
2203203,"R. Delfim Guedes, 90",-23.677626,-46.630289,onibus
2203204,"R. Sebastião Afonso, 769",-23.679878,-46.63673,onibus
2301628,"Av. Arestóteles Costa Pinto, 770",-23.734551,-46.683081,onibus
2301632,"Av. Arestóteles Costa Pinto, 97",-23.728972,-46.682786,onibus
2301634,"Av. Manuel Alves Soares, 150",-23.722531,-46.688791,onibus
2301642,"R. Gaspar José Raposo, 166",-23.722212,-46.679384,onibus
2301699,"Av. Gregório Bezerra, 493",-23.711591,-46.686883,onibus
2301751,"Av. Pres. João Goulart, 141",-23.720714,-46.697114,onibus
2301758,"R. Rubem Souto De Araújo, 948",-23.740139,-46.707179,onibus
2301763,"R. Acácio Fontoura, 96",-23.73136,-46.716403,onibus
2301771,"R. José Inácio Da Silva, 40",-23.723403,-46.705323,onibus
2301786,"Av. João Paulo Da Silva, 215",-23.693837,-46.696615,onibus
2301813,Ceu Cid. Dutra,-23.710336,-46.704018,onibus
2301814,Ceu Cid. Dutra,-23.71083,-46.703931,onibus
2301820,"Av. Do Jangadeiro, 378",-23.707415,-46.699305,onibus
2301831,"Av. Do Jangadeiro, 715",-23.707473,-46.696281,onibus
2301832,"Av. Do Jangadeiro, 634",-23.707702,-46.696508,onibus
2301833,"Av. Rubens Montanaro De Borba, 127",-23.708182,-46.694333,onibus
2301838,"Av. Rubens Montanaro De Borba, 859",-23.713885,-46.691503,onibus
2301841,"Av. Matias Beck, 100",-23.709202,-46.688926,onibus
2314346,"R. Balneário São José, 30",-23.766867,-46.720859,onibus
2314360,"Av. Pres. João Goulart, 479",-23.722,-46.694487,onibus
2314377,"Av. Lourenço Cabreira, 794",-23.71459,-46.690081,onibus
2314378,"Av. Rubens Montanaro De Borba, 689",-23.712748,-46.691626,onibus
2314388,"R. Rubem Souto De Araújo, 1200",-23.741613,-46.706924,onibus
2314389,"R. Prof. Enéas De Siqueira Neto, 503",-23.729081,-46.711164,onibus
2314391,"Av. Prof. Papini, 196",-23.713689,-46.705527,onibus
2314392,"R. Antônio Alvares Da Silva, 334",-23.717414,-46.688123,onibus
2314393,"R. Antônio Alvares Da Silva, 307",-23.71732,-46.688425,onibus
2314396,"Av. Sen. Teotônio Vilela, 6162",-23.750763,-46.710546,onibus
2314459,"Av. Rodrigues Vilares, 442",-23.727112,-46.703621,onibus
2314474,"Av. Manuel Alves Soares, 295",-23.723435,-46.68819,onibus
2314484,"R. Acácio Fontoura, 49",-23.730841,-46.716823,onibus
2314488,"Av. Manuel Alves Soares, 310",-23.724205,-46.687773,onibus
2314493,Autódromo,-23.706148,-46.688358,onibus
2314497,"R. Álvares Correia, 738",-23.733585,-46.703471,onibus
2314504,"R. José Bochiglieri, 39",-23.740335,-46.707625,onibus
2314508,"Av. Sen. Teotônio Vilela, 5800",-23.749076,-46.709438,onibus
2314510,"Av. Feliciano Correia, 870",-23.703061,-46.689655,onibus
2314512,"R. Plínio Schmidt, 321",-23.705176,-46.688346,onibus
2314514,Primavera-interlagos,-23.722893,-46.691773,onibus
2314516,"Av. Da. Belmira Marin, 461",-23.735208,-46.695518,onibus
2314519,"R. Fernão Alvares Do Oriente, 91",-23.71462,-46.684264,onibus
2314529,"R. Balneário São José, 935",-23.767199,-46.723107,onibus
2314547,"R. Francisco Pinto De Andrade, 0",-23.718541,-46.697046,onibus
2314558,"R. Plínio Schmidt, 441",-23.705136,-46.688327,onibus
2314562,"R. Nsa. Sra. Do Outeiro, 131",-23.713443,-46.699747,onibus
2314563,"Av. Jair Ribeiro Da Silva, 51",-23.705369,-46.68746,onibus
2314564,"Av. Sen. Teotônio Vilela, 7900",-23.764846,-46.716794,onibus
2314567,"Av. Sen. Teotônio Vilela, 7073",-23.758491,-46.714814,onibus
2314571,"Av. Feliciano Correia, 360",-23.702725,-46.691073,onibus
2314574,"R. Armando Vieira, 471",-23.707329,-46.687963,onibus
2314576,"R. Brás Da Rocha, 34",-23.726873,-46.702513,onibus
2314577,"R. Brás Da Rocha, 281",-23.725358,-46.704325,onibus
2314578,"R. Raul Leal, 34",-23.716414,-46.683207,onibus
2314579,"R. Raul Leal, 26",-23.716436,-46.683265,onibus
2314580,"R. Djalma Pessolato, 17",-23.707445,-46.691731,onibus
2314581,"Av. Jair Ribeiro Da Silva, 52",-23.703496,-46.686114,onibus
2314582,Pça. Cristina Boemer Rochel,-23.743858,-46.705782,onibus
2314583,R. Pomba Trocaz,-23.724071,-46.670773,onibus
2314585,"R. José Luís Monteiro, 684",-23.730099,-46.708341,onibus
2314589,"R. Virgínia Maria Da Conceição, 320",-23.723045,-46.703684,onibus
2314594,"R. Frederico René De Jaegher, 2125",-23.726726,-46.716543,onibus
2314595,"Av. Matias Beck, 21",-23.708955,-46.689055,onibus
2314596,"Av. Pres. João Goulart, 422",-23.722096,-46.695241,onibus
2314597,"R. Augusto Felipe Simões, 2759",-23.719779,-46.676963,onibus
2314598,"Av. Feliciano Correia, 428",-23.703168,-46.689926,onibus
2314599,"Av. Irmã Dulce, 248",-23.726853,-46.682949,onibus
2314600,"R. Elvira Garrelli Wafae, 33",-23.73871,-46.708898,onibus
2314604,"R. Guaiuba, 315",-23.707442,-46.700081,onibus
2314605,"R. S. Roque Do Paraguaçu, 142",-23.743696,-46.703355,onibus
2314607,"Av. Pres. João Goulart, 620",-23.722031,-46.693109,onibus
2314608,R. João Baptista Cataldo,-23.70703,-46.68929,onibus
2314610,"Pça. Escolar, 227",-23.709515,-46.69847,onibus
2314612,"Pça. Escolar, 251",-23.709661,-46.698435,onibus
2314613,"Av. Pres. João Goulart, 3933",-23.720374,-46.675163,onibus
2314614,"Av. Irmã Dulce, 206",-23.725567,-46.682864,onibus
2314615,"Av. Irmã Dulce, 209",-23.72536,-46.682708,onibus
2314616,"Av. Pres. João Goulart, 2014",-23.723543,-46.681798,onibus
2314617,"Av. Pres. João Goulart, 2720",-23.721134,-46.676656,onibus
2314618,"Av. Lourenço Cabreira, 766",-23.714752,-46.689944,onibus
2314619,"R. Justino Nigro, 256",-23.707638,-46.693029,onibus
2314620,"R. Suape, 138",-23.708374,-46.696079,onibus
2314621,"Av. Pres. João Goulart, 2743",-23.721223,-46.676609,onibus
2314622,"R. José Solana, 370",-23.728052,-46.714508,onibus
2314623,"R. José Solana, 370",-23.728182,-46.714457,onibus
2314625,Av. Marginal Leste - Estação Mendes - Vila Natal,-23.754557,-46.7088,onibus
2314628,"R. Marciano Da Silva, 25",-23.718774,-46.679524,onibus
2314629,"R. Gaspar José Raposo, 460",-23.719422,-46.679728,onibus
2314630,"R. Venâncio Poletti, 27",-23.741705,-46.711436,onibus
2314632,Av. Marginal Leste - Estação Mendes - Vila Natal,-23.754541,-46.708998,onibus
2314633,"Estr. Dos Mendes, 1562",-23.756856,-46.709082,onibus
2314634,"R. Antônio Le Voci, 363",-23.713489,-46.694962,onibus
2314635,"R. Antônio Le Voci, 363",-23.71348,-46.695469,onibus
2314636,"R. Brasília Roschel Gottsfritz, 218",-23.720002,-46.69551,onibus
2314637,"R. Brasília Roschel Gottsfritz, 219",-23.720078,-46.694896,onibus
2314638,"R. Maria Aparecida Anacleto, 448",-23.719786,-46.692473,onibus
2314639,"R. Maria Aparecida Anacleto, 453",-23.720026,-46.692409,onibus
2314640,"Av. Pedro Roschel Gottsfritz, 357",-23.715454,-46.692098,onibus
2314641,Av. Marginal Leste - Estação Mendes - Vila Natal,-23.754128,-46.708829,onibus
2314642,Av. Marginal Leste - Estação Mendes - Vila Natal,-23.753846,-46.708709,onibus
2314643,"R. Jacopo Torriti, 265",-23.747716,-46.707477,onibus
2314644,"R. Jacopo Torriti, 15",-23.746257,-46.705999,onibus
2314645,"Av. Sen. Teotônio Vilela, 3756",-23.733541,-46.698642,onibus
2314646,"Av. Sen. Teotônio Vilela, 3843",-23.733924,-46.698455,onibus
2314647,"Av. Sen. Teotônio Vilela, 4420",-23.738752,-46.701014,onibus
2314648,"Av. Sen. Teotônio Vilela, 4501",-23.739483,-46.701585,onibus
2314649,"Av. Sen. Teotônio Vilela, 4600",-23.740378,-46.704258,onibus
2314650,"Av. Sen. Teotônio Vilela, 4745",-23.740738,-46.704444,onibus
2314651,R. Miguel De Barros,-23.714508,-46.690693,onibus
2314652,"R. Indochina, 148",-23.731677,-46.70717,onibus
2314653,"R. Gaspar José Raposo, 250",-23.720243,-46.680086,onibus
2314654,"R. Gaspar José Raposo, 384",-23.720439,-46.679953,onibus
2314655,Av. Marginal Oeste - Estação Mendes - Vila Natal,-23.753934,-46.709358,onibus
2314658,Av. Marginal Leste - Estação Mendes - Vila Natal,-23.754115,-46.708779,onibus
2314659,"R. Jequirituba, 85",-23.722723,-46.691486,onibus
2404267,"Av. Alziro Zarur, 210",-23.562362,-46.482961,onibus
2404271,"R. Januário Da Costa, 215",-23.575377,-46.496975,onibus
2404272,"R. Ernani Fornari, 26",-23.575177,-46.496246,onibus
2404281,"R. João Chagas, 57",-23.56766,-46.494185,onibus
2404633,"Av. Dos Latinos, 569",-23.572464,-46.50043,onibus
2408261,"R. Adolfo Lima Barros, 93",-23.560102,-46.481202,onibus
2408268,"Pça. Valdemar Bassi, 58",-23.561087,-46.49112,onibus
2408275,"R. Luís Percore, 189",-23.557053,-46.48647,onibus
2408286,"R. Bilimbi, 169",-23.555614,-46.49488,onibus
2408986,"R. Costeira, 340",-23.558593,-46.511834,onibus
2408992,"R. Sândalo, 252",-23.556268,-46.507596,onibus
2408995,"R. Sândalo, 237",-23.556322,-46.507763,onibus
2409021,"Av. Itaquera, 1600",-23.55041,-46.509743,onibus
2409054,"R. Francesco Melzi, 140",-23.561916,-46.499789,onibus
2409056,"Av. Alziro Zarur, 259",-23.56305,-46.482872,onibus
2409061,"R. Martinho De Alboim, 22",-23.574743,-46.497173,onibus
2409064,"Av. Itaquera, 5929",-23.552855,-46.471296,onibus
2409065,"R. Açaí, 330",-23.553349,-46.513085,onibus
2409094,"R. Luís Norberto Freire, 640",-23.572046,-46.490639,onibus
2409112,"Av. Belarmino Ferreira, 205",-23.559823,-46.510625,onibus
2409124,"Av. Itaquera, 4900",-23.553084,-46.479561,onibus
2409142,"Av. Líder, 2523",-23.556532,-46.470697,onibus
2409144,"R. Costeira, 54",-23.556747,-46.513514,onibus
2409145,"Av. Itaquera, 744",-23.5548,-46.515891,onibus
2409146,Av. Principal Leste,-23.562555,-46.499544,onibus
2409147,"R. Morubixaba, 709",-23.564265,-46.477154,onibus
2409148,"R. Morubixaba, 198",-23.564381,-46.477044,onibus
2409159,"R. Valença Do Minho, 364",-23.559322,-46.495525,onibus
2409160,"R. Elza Dos Anjos Neves, 715",-23.567205,-46.494414,onibus
2409162,"R. Elza Dos Anjos Neves, 710",-23.567286,-46.494351,onibus
2409163,"R. Açaí, 413",-23.55274,-46.512766,onibus
2409168,"R. Serra Das Divisões, 98",-23.554257,-46.490352,onibus
2409169,"R. Serra Das Divisões, 117",-23.554155,-46.490461,onibus
2409172,"Av. Maria Luiza Americano, 2759",-23.558442,-46.475401,onibus
2409173,"R. Ari José Leguori, 111",-23.554702,-46.500622,onibus
2409174,"Av. Itaquera, 1549",-23.550119,-46.510105,onibus
2409175,"Baia Interna Alziro Zarur, 1959",-23.570284,-46.489606,onibus
2409176,"Baia Interna Alziro Zarur, 1943",-23.570386,-46.489915,onibus
2409177,"R. Ponche Verde, 250",-23.558136,-46.488866,onibus
2409178,Ac. Acesso,-23.557935,-46.485869,onibus
2409179,R. Pero Vaz De Caminha,-23.558291,-46.4886,onibus
2409182,"Av. Osvaldo Valle Cordeiro, 1179",-23.559982,-46.485725,onibus
2409184,"R. Alfredo Pimenta, 53",-23.5607,-46.493402,onibus
2409185,"R. Alfredo Pimenta, 178",-23.560969,-46.491681,onibus
2409187,"R. Jutairana, 15",-23.555318,-46.4843,onibus
2409188,Maria Luiza Americano,-23.556419,-46.477692,onibus
2409189,"Av. Líder, 93",-23.554467,-46.491123,onibus
2409190,Maria Luiza Americano,-23.556668,-46.476836,onibus
2409191,Miguel Melo Alvin,-23.556433,-46.470043,onibus
2409194,"Av. Líder, 2451",-23.556719,-46.471107,onibus
2409195,Francisco Munhoz Filho,-23.553248,-46.465585,onibus
2409196,Francisco Munhoz Filho,-23.552996,-46.46541,onibus
2409197,"R. Demerval Da Fonseca, 291",-23.576326,-46.492747,onibus
2409198,"R. Demerval Da Fonseca, 81",-23.578113,-46.494106,onibus
2409199,"R. Embiú, 591",-23.55196,-46.511254,onibus
2409200,"R. José Da Costa De Andrade, 105",-23.575225,-46.490184,onibus
2409201,"Av. Itaquera, 6751",-23.551182,-46.463733,onibus
2409203,"Av. Jean Khoury Farah, 450",-23.549174,-46.474184,onibus
2409204,"R. Marajá-açu, 133",-23.559748,-46.505066,onibus
2409205,"R. Marajá-açu, 133",-23.559657,-46.505098,onibus
2409207,"R. Serra Das Divisões, 575",-23.555312,-46.486198,onibus
2409210,"R. Orlando Pellicci, 367",-23.558913,-46.47823,onibus
2409211,"R. Pedro De Labatut, 690",-23.557784,-46.479868,onibus
